state,city,latitude,longitude
AL,Abanda,33.091627,-85.527029
AL,Abbeville,31.564724,-85.259123
AL,Adamsville,33.602315,-86.971527
AL,Addison,34.202681,-87.178004
AL,Akron,32.879066,-87.740899
AL,Alabaster,33.244399,-86.847372
AL,Albertville,34.26313,-86.21066
AL,Alexander City,32.92724,-85.937122
AL,Alexandria,33.760819,-85.872008
AL,Aliceville,33.123706,-88.159344
AL,Allgood,33.907623,-86.516109
AL,Altoona,34.040014,-86.305179
AL,Andalusia,31.309436,-86.478031
AL,Anderson,34.915675,-87.274274
AL,Anniston,33.673469,-85.810891
AL,Arab,34.332387,-86.501167
AL,Ardmore,34.987838,-86.829022
AL,Argo,33.691018,-86.505281
AL,Ariton,31.597772,-85.713061
AL,Arley,34.076234,-87.217831
AL,Ashford,31.185284,-85.236236
AL,Ashland,33.269892,-85.833706
AL,Ashville,33.835197,-86.270015
AL,Athens,34.779021,-86.950799
AL,Atmore,31.124067,-87.457798
AL,Attalla,33.986189,-86.121037
AL,Auburn,32.607722,-85.489545
AL,Autaugaville,32.432563,-86.658752
AL,Avon,31.179727,-85.279211
AL,Axis,30.922171,-88.02262
AL,Babbie,31.302083,-86.319437
AL,Baileyton,34.260858,-86.608788
AL,Bakerhill,31.776923,-85.295408
AL,Ballplay,34.023047,-85.801478
AL,Banks,31.813264,-85.836434
AL,Bay Minette,30.894436,-87.791306
AL,Bayou La Batre,30.407586,-88.263271
AL,Bear Creek,34.255481,-87.713399
AL,Beatrice,31.733309,-87.209046
AL,Beaverton,33.935411,-88.021778
AL,Belgreen,34.47454,-87.861678
AL,Belk,33.651641,-87.92861
AL,Bellamy,32.463658,-88.131481
AL,Belle Fontaine,30.489492,-88.10594
AL,Benton,32.307931,-86.817546
AL,Berlin,34.178105,-86.757907
AL,Berry,33.666702,-87.609311
AL,Bessemer,33.370858,-86.971522
AL,Billingsley,32.664711,-86.706713
AL,Birmingham,33.527174,-86.797036
AL,Black,31.00977,-85.74442
AL,Blountsville,34.075838,-86.583918
AL,Blue Ridge,32.4989,-86.182436
AL,Blue Springs,31.663516,-85.503526
AL,Boaz,34.19902,-86.155151
AL,Boligee,32.768081,-88.02859
AL,Bon Air,33.25937,-86.327148
AL,Bon Secour,30.318246,-87.72439
AL,Boykin,32.068375,-87.294343
AL,Brantley,31.581992,-86.256784
AL,Brantleyville,33.219303,-86.882522
AL,Brent,32.944893,-87.172088
AL,Brewton,31.109175,-87.076583
AL,Bridgeport,34.949312,-85.723765
AL,Brighton,33.439551,-86.945404
AL,Brilliant,34.025671,-87.769047
AL,Bristow Cove,34.109216,-86.240993
AL,Brook Highland,33.440378,-86.68488
AL,Brookside,33.634617,-86.906314
AL,Brookwood,33.239842,-87.331488
AL,Broom,34.365728,-85.532112
AL,Brundidge,31.717639,-85.81755
AL,Bucks,31.016881,-88.026385
AL,Butler,32.096479,-88.210781
AL,Calera,33.122319,-86.745644
AL,Calvert,31.149898,-88.021549
AL,Camden,31.998493,-87.28895
AL,Camp Hill,32.797327,-85.655833
AL,Carbon Hill,33.894991,-87.522078
AL,Cardiff,33.64729,-86.930637
AL,Carlisle-Rockledge,34.114451,-86.124073
AL,Carlton,31.348571,-87.835666
AL,Carolina,31.23415,-86.521001
AL,Carrollton,33.261903,-88.095071
AL,Castleberry,31.299678,-87.029129
AL,Catherine,32.18617,-87.469978
AL,Cedar Bluff,34.221422,-85.588565
AL,Center Point,33.643903,-86.684567
AL,Centre,34.153059,-85.671683
AL,Centreville,32.958967,-87.132043
AL,Chatom,31.469145,-88.246019
AL,Chelsea,33.326887,-86.629519
AL,Cherokee,34.7577,-87.965589
AL,Chickasaw,30.77145,-88.079697
AL,Childersburg,33.292549,-86.340844
AL,Choccolocco,33.667728,-85.707191
AL,Chunchula,30.927194,-88.2082
AL,Citronelle,31.097269,-88.249843
AL,Clanton,32.845572,-86.619494
AL,Clay,33.696583,-86.608182
AL,Clayhatchee,31.236925,-85.721478
AL,Clayton,31.882277,-85.460454
AL,Cleveland,34.002179,-86.561352
AL,Clio,31.708516,-85.611039
AL,Coaling,33.169901,-87.349887
AL,Coats Bend,34.073273,-85.874602
AL,Coffee Springs,31.165836,-85.910898
AL,Coffeeville,31.766564,-88.086049
AL,Coker,33.243752,-87.681329
AL,Collinsville,34.267224,-85.86861
AL,Colony,33.941393,-86.902001
AL,Columbia,31.295351,-85.110202
AL,Columbiana,33.191452,-86.615618
AL,Concord,33.461988,-87.040429
AL,Coosada,32.495394,-86.326543
AL,Cordova,33.761788,-87.199416
AL,Cottondale,33.193047,-87.454861
AL,Cottonwood,31.054033,-85.29956
AL,County Line,33.820724,-86.719467
AL,Courtland,34.669946,-87.327892
AL,Cowarts,31.206248,-85.309769
AL,Creola,30.874249,-88.009536
AL,Crossville,34.282697,-85.999737
AL,Cuba,32.440733,-88.374798
AL,Cullman,34.17687,-86.840656
AL,Cullomburg,31.713061,-88.291774
AL,Cusseta,32.787637,-85.305769
AL,Dadeville,32.826114,-85.776201
AL,Daleville,31.291533,-85.711711
AL,Daphne,30.627702,-87.883992
AL,Dauphin Island,30.250913,-88.171268
AL,Daviston,33.056839,-85.634329
AL,Dayton,32.350958,-87.641573
AL,Deatsville,32.589044,-86.389059
AL,Decatur,34.572995,-86.989901
AL,Deer Park,31.218369,-88.328023
AL,Delta,33.440524,-85.675905
AL,Demopolis,32.499744,-87.826678
AL,Detroit,34.027379,-88.167831
AL,Dodge City,34.043275,-86.885524
AL,Dora,33.728116,-87.081292
AL,Dothan,31.233698,-85.406823
AL,Double Springs,34.149648,-87.389447
AL,Douglas,34.168258,-86.323386
AL,Dozier,31.505407,-86.369235
AL,Dunnavant,33.495011,-86.540481
AL,Dutton,34.606152,-85.91185
AL,Eagle Point,33.400912,-86.676753
AL,East Brewton,31.09144,-87.055345
AL,East Point,34.19088,-86.791899
AL,Eclectic,32.640222,-86.041062
AL,Edgewater,33.530099,-86.95279
AL,Edwardsville,33.88374,-85.414124
AL,Egypt,34.075938,-86.165054
AL,Elba,31.417218,-86.077115
AL,Elberta,30.373753,-87.595729
AL,Eldridge,33.922018,-87.620108
AL,Elkmont,34.932604,-86.976971
AL,Elmore,32.556606,-86.341025
AL,Emelle,32.728678,-88.316486
AL,Emerald Mountain,32.447694,-86.094381
AL,Enterprise,31.326898,-85.844021
AL,Epes,32.695049,-88.141963
AL,Equality,32.765659,-86.123185
AL,Ethelsville,33.414066,-88.216093
AL,Eufaula,31.909937,-85.152709
AL,Eunola,31.031391,-85.833966
AL,Eutaw,32.846247,-87.900332
AL,Eva,34.326504,-86.765318
AL,Evergreen,31.433216,-86.976081
AL,Excel,31.426386,-87.343663
AL,Fairfield,33.474778,-86.919413
AL,Fairford,31.178002,-88.072784
AL,Fairhope,30.52092,-87.879122
AL,Fairview,34.250195,-86.677724
AL,Falkville,34.377019,-86.909547
AL,Faunsdale,32.457614,-87.593789
AL,Fayette,33.694215,-87.831169
AL,Fayetteville,33.168097,-86.442774
AL,Fitzpatrick,32.210377,-85.873693
AL,Five Points,33.017311,-85.351592
AL,Flomaton,31.014816,-87.256016
AL,Florala,31.022391,-86.318152
AL,Florence,34.830323,-87.666139
AL,Foley,30.397009,-87.664211
AL,Forestdale,33.573701,-86.900047
AL,Forkland,32.647435,-87.867436
AL,Fort Deposit,31.986261,-86.566359
AL,Fort Payne,34.457329,-85.689447
AL,Fort Rucker,31.342576,-85.716072
AL,Franklin,32.452693,-85.78541
AL,Fredonia,32.983577,-85.292306
AL,Frisco City,31.439485,-87.404182
AL,Fruitdale,31.34979,-88.410937
AL,Fruithurst,33.729539,-85.431249
AL,Fulton,31.790989,-87.744212
AL,Fultondale,33.617363,-86.801436
AL,Fyffe,34.448957,-85.905167
AL,Gadsden,34.006597,-86.016078
AL,Gainesville,32.814934,-88.160791
AL,Gallant,34.001318,-86.230171
AL,Gantt,31.41074,-86.483524
AL,Garden City,34.014688,-86.749054
AL,Gardendale,33.676587,-86.809844
AL,Gaylesville,34.267444,-85.561248
AL,Geiger,32.868715,-88.318154
AL,Geneva,31.044886,-85.876818
AL,Georgiana,31.639134,-86.746762
AL,Geraldine,34.359087,-86.002579
AL,Gilber,31.866247,-88.307545
AL,Glen Allen,33.892108,-87.732682
AL,Glencoe,33.948339,-85.933606
AL,Glenwood,31.671266,-86.173687
AL,Goldville,33.084867,-85.777982
AL,Good Hope,34.110689,-86.867104
AL,Goodwater,33.060713,-86.052486
AL,Gordo,33.322286,-87.903681
AL,Gordon,31.143606,-85.092504
AL,Gordonville,32.159179,-86.704235
AL,Goshen,31.720015,-86.123245
AL,Graham,33.455191,-85.323085
AL,Grand Bay,30.472082,-88.344401
AL,Grant,34.518173,-86.26043
AL,Grayson Valley,33.64662,-86.641655
AL,Graysville,33.633756,-86.941398
AL,Greensboro,32.700968,-87.5937
AL,Greenville,31.843072,-86.636951
AL,Grimes,31.299869,-85.45029
AL,Grove Hill,31.69867,-87.772868
AL,Guin,33.98322,-87.902363
AL,Gulfcrest,30.991106,-88.242231
AL,Gulf Shores,30.275837,-87.701258
AL,Guntersville,34.367947,-86.252323
AL,Gurley,34.702471,-86.37433
AL,Gu-Win,33.94433,-87.870376
AL,Hackleburg,34.269355,-87.830402
AL,Hackneyville,33.054654,-85.934423
AL,Haleburg,31.409976,-85.138068
AL,Haleyville,34.233832,-87.617574
AL,Hamilton,34.138713,-87.970833
AL,Hammondville,34.566232,-85.640348
AL,Hanceville,34.06401,-86.764436
AL,Hanover,33.002922,-86.200931
AL,Harpersville,33.317725,-86.428431
AL,Hartford,31.105348,-85.691225
AL,Hartselle,34.440434,-86.940364
AL,Harvest,34.85507,-86.758643
AL,Hatton,34.560671,-87.413835
AL,Hayden,33.894514,-86.744224
AL,Hayneville,32.182595,-86.578588
AL,Hazel Green,34.923656,-86.567392
AL,Headland,31.354974,-85.357031
AL,Heath,31.344839,-86.46905
AL,Heflin,33.6474,-85.569339
AL,Helena,33.283424,-86.879177
AL,Henagar,34.630641,-85.730918
AL,Highland Lake,33.894586,-86.422553
AL,Highland Lakes,33.397611,-86.64792
AL,Hillsboro,34.642586,-87.178489
AL,Hissop,32.890568,-86.129601
AL,Hobson,31.488725,-88.150928
AL,Hobson City,33.618801,-85.846146
AL,Hodges,34.334246,-87.92316
AL,Hokes Bluff,33.989682,-85.862873
AL,Hollins,33.121757,-86.126967
AL,Hollis Crossroads,33.531333,-85.652862
AL,Holly Pond,34.167686,-86.612067
AL,Hollywood,34.717279,-85.965579
AL,Holt,33.229745,-87.482894
AL,Holtville,32.630299,-86.328004
AL,Homewood,33.45855,-86.80965
AL,Hoover,33.376949,-86.805579
AL,Horn Hill,31.238137,-86.325163
AL,Huey,33.408604,-87.016565
AL,Huguley,32.843062,-85.239635
AL,Huntsville,34.782275,-86.532599
AL,Hurtsboro,32.24009,-85.41467
AL,Hytop,34.896635,-86.089176
AL,Ider,34.702599,-85.668958
AL,Indian Springs Village,33.361209,-86.746856
AL,Irondale,33.539914,-86.659082
AL,Ivalee,34.037204,-86.147182
AL,Jackson,31.532321,-87.891183
AL,Jacksons' Gap,32.884019,-85.815046
AL,Jacksonville,33.810066,-85.755217
AL,Jasper,33.856035,-87.270268
AL,Jemison,32.970705,-86.73307
AL,Joppa,34.29955,-86.549946
AL,Kansas,33.902808,-87.556598
AL,Kellyton,32.979188,-86.034608
AL,Kennedy,33.580717,-87.985488
AL,Killen,34.860954,-87.529346
AL,Kimberly,33.780312,-86.800593
AL,Kinsey,31.296269,-85.334994
AL,Kinston,31.219604,-86.170075
AL,Ladonia,32.459709,-85.090423
AL,La Fayette,32.899427,-85.400795
AL,Lakeview,34.391675,-85.975573
AL,Lake View,33.288266,-87.132653
AL,Lanett,32.857768,-85.207761
AL,Langston,34.545063,-86.09335
AL,Leeds,33.546847,-86.571448
AL,Leesburg,34.178627,-85.777897
AL,Leighton,34.69368,-87.524282
AL,Leroy,31.494971,-87.972773
AL,Lester,34.982751,-87.155534
AL,Level Plains,31.307124,-85.768722
AL,Lexington,34.959351,-87.37283
AL,Libertyville,31.24005,-86.456955
AL,Lillian,30.418904,-87.420751
AL,Lincoln,33.580169,-86.127876
AL,Linden,32.30136,-87.792583
AL,Lineville,33.312832,-85.752278
AL,Lipscomb,33.426005,-86.926103
AL,Lisman,32.171729,-88.284092
AL,Littleville,34.595132,-87.670739
AL,Livingston,32.595549,-88.186929
AL,Loachapoka,32.607946,-85.598479
AL,Lockhart,31.013011,-86.350273
AL,Locust Fork,33.876794,-86.647093
AL,Lookout Mountain,34.115916,-85.965464
AL,Louisville,31.781047,-85.558336
AL,Lowndesboro,32.276422,-86.610848
AL,Loxley,30.684588,-87.739213
AL,Luverne,31.718941,-86.269082
AL,Lynn,34.057591,-87.548643
AL,McCalla,33.303112,-87.02666
AL,McDonald Chapel,33.518576,-86.938462
AL,Macedonia,33.403139,-88.239221
AL,McIntosh,31.264957,-88.028369
AL,McKenzie,31.54647,-86.725954
AL,McMullen,33.1481,-88.175749
AL,Madison,34.710533,-86.76228
AL,Madrid,31.035635,-85.399205
AL,Magnolia Springs,30.40341,-87.775895
AL,Malcolm,31.198697,-88.001065
AL,Malvern,31.143698,-85.522973
AL,Maplesville,32.784391,-86.879694
AL,Marbury,32.672984,-86.463728
AL,Margaret,33.67284,-86.463942
AL,Marion,32.631968,-87.317333
AL,May,33.549954,-87.000043
AL,Meadowbrook,33.395235,-86.704373
AL,Megargel,31.378141,-87.430649
AL,Memphis,33.137044,-88.305942
AL,Mentone,34.563209,-85.589704
AL,Meridianville,34.874913,-86.580559
AL,Midfield,33.45527,-86.922411
AL,Midland City,31.315675,-85.493674
AL,Midway,32.076373,-85.524417
AL,Mignon,33.18658,-86.256886
AL,Millbrook,32.501474,-86.373914
AL,Millerville,33.191458,-85.929828
AL,Millport,33.555935,-88.082382
AL,Millry,31.621199,-88.327956
AL,Minor,33.539011,-86.940073
AL,Mobile,30.668426,-88.100226
AL,Monroeville,31.516223,-87.327714
AL,Montevallo,33.126053,-86.847702
AL,Montgomery,32.348503,-86.267307
AL,Moody,33.603429,-86.493786
AL,Moores Mill,34.852143,-86.52038
AL,Mooresville,34.625883,-86.880025
AL,Morris,33.746223,-86.800755
AL,Morrison Crossroads,33.417996,-85.488284
AL,Mosses,32.188758,-86.679435
AL,Moulton,34.488302,-87.282707
AL,Moundville,32.996542,-87.627545
AL,Mountain Brook,33.491488,-86.73447
AL,Mount Olive,33.078454,-86.13304
AL,Mount Olive,33.669286,-86.87549
AL,Mount Vernon,31.087727,-88.013166
AL,Movico,31.062763,-88.026619
AL,Mulga,33.554903,-86.971309
AL,Munford,33.526208,-85.956225
AL,Muscle Shoals,34.74317,-87.633761
AL,Myrtlewood,32.252088,-87.949261
AL,Nanafalia,32.111393,-87.995757
AL,Nances Creek,33.855501,-85.669104
AL,Napier Field,31.314917,-85.454962
AL,Natural Bridge,34.090354,-87.601409
AL,Nauvoo,33.984386,-87.48544
AL,Nectar,33.979779,-86.620614
AL,Needham,31.987,-88.336563
AL,Newbern,32.591672,-87.535614
AL,New Brockton,31.37671,-85.919028
AL,New Hope,34.537972,-86.412372
AL,New Market,34.892335,-86.425818
AL,New Site,33.026041,-85.784536
AL,Newton,31.341229,-85.588307
AL,New Union,34.133682,-86.228002
AL,Newville,31.420604,-85.33669
AL,Nixburg,32.855488,-86.100838
AL,North Courtland,34.680023,-87.305717
AL,North Johns,33.367769,-87.100725
AL,Northport,33.257565,-87.596396
AL,Notasulga,32.555409,-85.668577
AL,Oak Grove,33.190359,-86.303727
AL,Oak Hill,31.92162,-87.085234
AL,Oakman,33.714322,-87.388699
AL,Odenville,33.700875,-86.423371
AL,Ohatchee,33.789759,-86.029062
AL,Oneonta,33.947038,-86.489793
AL,Onycha,31.225693,-86.276024
AL,Opelika,32.660739,-85.37889
AL,Opp,31.284375,-86.257442
AL,Orange Beach,30.293987,-87.595371
AL,Orrville,32.306769,-87.245447
AL,Our Town,32.842211,-85.967035
AL,Owens Cross Roads,34.585458,-86.455027
AL,Oxford,33.597366,-85.868132
AL,Ozark,31.451615,-85.645035
AL,Paint Rock,34.660934,-86.333952
AL,Panola,32.946819,-88.262266
AL,Parrish,33.732321,-87.280127
AL,Pea Ridge,33.133805,-86.937949
AL,Pelham,33.32183,-86.742197
AL,Pell City,33.560312,-86.263634
AL,Pennington,32.200612,-88.037572
AL,Penton,33.009832,-85.474824
AL,Perdido,31.005692,-87.630112
AL,Perdido Beach,30.353879,-87.5048
AL,Peterman,31.583669,-87.263042
AL,Petrey,31.85216,-86.204007
AL,Phenix City,32.461669,-85.025021
AL,Phil Campbell,34.351547,-87.707359
AL,Pickensville,33.235782,-88.289443
AL,Piedmont,33.927557,-85.615267
AL,Pike Road,32.273609,-86.118927
AL,Pinckard,31.318989,-85.537836
AL,Pine Apple,31.872155,-86.989059
AL,Pine Hill,31.985884,-87.587516
AL,Pine Level,32.579539,-86.454318
AL,Pine Ridge,34.447915,-85.783831
AL,Pinson,33.709262,-86.663613
AL,Pisgah,34.684366,-85.84601
AL,Pleasant Grove,33.493969,-86.978145
AL,Pleasant Groves,34.737619,-86.197637
AL,Point Clear,30.486112,-87.911132
AL,Pollard,31.023877,-87.172978
AL,Powell,34.532588,-85.897553
AL,Prattville,32.449042,-86.449401
AL,Priceville,34.529583,-86.882177
AL,Prichard,30.773337,-88.131416
AL,Providence,32.342386,-87.776115
AL,Putnam,32.018084,-88.033057
AL,Ragland,33.748325,-86.135927
AL,Rainbow City,33.928777,-86.084228
AL,Rainsville,34.494364,-85.836505
AL,Ranburne,33.525853,-85.339013
AL,Ray,32.868141,-86.045252
AL,Red Bay,34.436097,-88.136515
AL,Redland,32.481426,-86.143759
AL,Red Level,31.406711,-86.606217
AL,Redstone Arsenal,34.687763,-86.661172
AL,Reece City,34.077241,-86.034498
AL,Reel,32.574211,-85.819562
AL,Reform,33.378214,-88.017297
AL,Rehobeth,31.124507,-85.439607
AL,Remlap,33.806972,-86.593941
AL,Repton,31.409716,-87.238931
AL,Ridgeville,34.056929,-86.102874
AL,River Falls,31.352397,-86.544609
AL,Riverside,33.616394,-86.204357
AL,Riverview,31.06126,-87.077531
AL,Roanoke,33.145305,-85.369526
AL,Robertsdale,30.557139,-87.704723
AL,Rock Creek,33.477227,-87.081249
AL,Rockford,32.896866,-86.208346
AL,Rock Mills,33.15994,-85.28107
AL,Rockville,31.405776,-87.844212
AL,Rogersville,34.827714,-87.284092
AL,Rosa,33.992756,-86.500325
AL,Russellville,34.505719,-87.728123
AL,Rutledge,31.724072,-86.302008
AL,St. Florian,34.874098,-87.623736
AL,St. Stephens,31.571111,-88.052834
AL,Saks,33.711401,-85.853698
AL,Samson,31.112417,-86.046735
AL,Sand Rock,34.231228,-85.770416
AL,Sanford,31.298819,-86.398848
AL,Saraland,30.85401,-88.097202
AL,Sardis City,34.172413,-86.119104
AL,Satsuma,30.857874,-88.063383
AL,Scottsboro,34.64462,-86.048155
AL,Section,34.581644,-85.984942
AL,Selma,32.416983,-87.035702
AL,Selmont-West Selmont,32.378249,-87.006898
AL,Semmes,30.822358,-88.220136
AL,Sheffield,34.757028,-87.698183
AL,Shelby,33.106882,-86.585403
AL,Shiloh,34.462666,-85.877617
AL,Shoal Creek,33.430763,-86.610925
AL,Shorter,32.411509,-85.972756
AL,Silas,31.767802,-88.325923
AL,Silverhill,30.545359,-87.750557
AL,Sims Chapel,31.249255,-88.142971
AL,Sipsey,33.822119,-87.082918
AL,Skyline,34.798524,-86.12243
AL,Slocomb,31.112126,-85.59866
AL,Smiths Station,32.507159,-85.081075
AL,Smoke Rise,33.879942,-86.824683
AL,Snead,34.115755,-86.390122
AL,Somerville,34.467053,-86.791203
AL,Southside,33.890841,-86.01802
AL,South Vinemont,34.235567,-86.863965
AL,Spanish Fort,30.722968,-87.865917
AL,Spring Garden,33.972965,-85.555756
AL,Springville,33.74052,-86.484086
AL,Spruce Pine,34.39287,-87.729597
AL,Standing Rock,33.08569,-85.239849
AL,Stapleton,30.735558,-87.797727
AL,Steele,33.941378,-86.192107
AL,Sterrett,33.442198,-86.461045
AL,Stevenson,34.876797,-85.81435
AL,Stewartville,33.075532,-86.260693
AL,Stockton,31.001245,-87.873929
AL,Sulligent,33.891189,-88.126633
AL,Sumiton,33.749269,-87.046903
AL,Summerdale,30.476741,-87.687561
AL,Susan Moore,34.091999,-86.434156
AL,Sweet Water,32.104614,-87.861889
AL,Sylacauga,33.18867,-86.274799
AL,Sylvania,34.562039,-85.804722
AL,Sylvan Springs,33.53023,-87.031197
AL,Talladega,33.431757,-86.099454
AL,Talladega Springs,33.120452,-86.437761
AL,Tallassee,32.532665,-85.891993
AL,Tarrant,33.592897,-86.766253
AL,Taylor,31.168811,-85.47579
AL,Theodore,30.538686,-88.187573
AL,Thomaston,32.268277,-87.623706
AL,Thomasville,31.910455,-87.743024
AL,Thorsby,32.916909,-86.720335
AL,Tibbie,31.37049,-88.243862
AL,Tidmore Bend,34.033184,-85.926387
AL,Tillmans Corner,30.581533,-88.21278
AL,Town Creek,34.671301,-87.407763
AL,Toxey,31.910712,-88.309146
AL,Trafford,33.818713,-86.746502
AL,Triana,34.587779,-86.748488
AL,Trinity,34.597445,-87.081354
AL,Troy,31.80196,-85.96713
AL,Trussville,33.655233,-86.563239
AL,Tuscaloosa,33.234404,-87.5283
AL,Tuscumbia,34.718502,-87.702586
AL,Tuskegee,32.418723,-85.682509
AL,Twin,33.992314,-87.852295
AL,Underwood-Petersville,34.876112,-87.698157
AL,Union,32.99381,-87.907179
AL,Union Grove,34.406172,-86.451667
AL,Union Springs,32.139506,-85.714623
AL,Union,32.44662,-87.487271
AL,Uriah,31.307365,-87.499213
AL,Valley,32.801427,-85.204438
AL,Valley Grande,32.486872,-87.032773
AL,Valley Head,34.556204,-85.623044
AL,Vance,33.173992,-87.226627
AL,Vandiver,33.458856,-86.529222
AL,Vernon,33.758816,-88.114291
AL,Vestavia Hills,33.462496,-86.739508
AL,Vina,34.376175,-88.060572
AL,Vincent,33.383145,-86.402544
AL,Vinegar Bend,31.259093,-88.367264
AL,Vredenburgh,31.823234,-87.318077
AL,Wadley,33.1234,-85.568592
AL,Waldo,33.387083,-86.041075
AL,Walnut Grove,34.064595,-86.28717
AL,Warrior,33.814858,-86.81565
AL,Waterloo,34.917199,-88.064373
AL,Waverly,32.730078,-85.570999
AL,Weaver,33.75907,-85.809363
AL,Webb,31.257237,-85.289622
AL,Wedowee,33.308004,-85.4865
AL,Weogufka,33.021724,-86.309146
AL,West Blocton,33.118176,-87.125225
AL,West End-Cobb Town,33.651481,-85.876553
AL,West Jefferson,33.666515,-87.047035
AL,Westover,33.36734,-86.533986
AL,West Point,34.238735,-86.964017
AL,Wetumpka,32.540376,-86.206999
AL,Whatley,31.646343,-87.710836
AL,White Hall,32.297411,-86.715776
AL,White Plains,33.759312,-85.68847
AL,Whitesboro,34.169004,-86.058499
AL,Wilsonville,33.240752,-86.491105
AL,Wilton,33.081565,-86.879655
AL,Winfield,33.934717,-87.79131
AL,Woodland,33.375627,-85.397439
AL,Woodstock,33.217498,-87.148433
AL,Woodville,34.629576,-86.283461
AL,Yellow Bluff,31.962341,-87.477359
AL,York,32.500586,-88.291394
AK,Adak,51.909889,-176.598067
AK,Akhiok,56.948329,-154.215306
AK,Akiachak,60.920984,-161.402087
AK,Akiak,60.909445,-161.216002
AK,Akutan,54.139979,-165.763026
AK,Alakanuk,62.710997,-164.649719
AK,Alatna,66.563794,-152.838498
AK,Alcan Border,62.703078,-141.193584
AK,Aleknagik,59.288961,-158.664343
AK,Aleneva,58.059052,-152.909015
AK,Allakaket,66.542002,-152.583016
AK,Ambler,67.090944,-157.887097
AK,Anaktuvuk Pass,68.149752,-151.697066
AK,Anchorage,61.17425,-149.284329
AK,Anchor Point,59.747364,-151.695697
AK,Anderson,64.308281,-149.163187
AK,Angoon,57.441257,-134.478357
AK,Aniak,61.578825,-159.547427
AK,Anvik,62.631627,-160.215106
AK,Arctic Village,68.165374,-145.401362
AK,Atka,52.211546,-174.213452
AK,Atmautluak,60.862755,-162.280302
AK,Atqasuk,70.480786,-157.325459
AK,Attu Station,52.880248,173.256076
AK,Badger,64.800081,-147.385129
AK,Bear Creek,60.20806,-149.369779
AK,Beaver,66.384745,-147.287756
AK,Beluga,61.190862,-151.184237
AK,Bethel,60.793905,-161.796322
AK,Bettles,66.906901,-151.537994
AK,Big Delta,64.157047,-145.740874
AK,Big Lake,61.515547,-149.97553
AK,Birch Creek,66.268327,-145.876583
AK,Brevig Mission,65.343196,-166.508946
AK,Buckland,65.976489,-161.139436
AK,Buffalo Soapstone,61.684439,-149.121172
AK,Butte,61.534033,-148.988168
AK,Cantwell,63.411396,-148.749621
AK,Central,65.509073,-144.620508
AK,Chalkyitsik,66.646753,-143.789298
AK,Chase,62.418236,-149.936172
AK,Chefornak,60.151845,-164.251542
AK,Chena Ridge,64.794305,-148.032883
AK,Chenega,60.092096,-147.99458
AK,Chevak,61.52956,-165.594126
AK,Chickaloon,61.815283,-148.291957
AK,Chicken,64.087691,-141.828278
AK,Chignik,56.29518,-158.391784
AK,Chignik Lagoon,56.304267,-158.500259
AK,Chignik Lake,56.273221,-158.793376
AK,Chiniak,57.575497,-152.279033
AK,Chisana,62.110039,-142.050549
AK,Chistochina,62.596444,-144.941045
AK,Chitina,61.553038,-144.175268
AK,Chuathbaluk,61.573909,-159.247015
AK,Circle,65.838617,-144.175331
AK,Clam Gulch,60.208887,-151.404203
AK,Clark's Point,58.832992,-158.527347
AK,Coffman Cove,56.001661,-132.841966
AK,Cohoe,60.266971,-151.298172
AK,Cold Bay,55.215824,-162.775686
AK,Coldfoot,67.247451,-150.108051
AK,College,64.86729,-147.819453
AK,Cooper Landing,60.494579,-149.843945
AK,Copper Center,62.001096,-145.363956
AK,Cordova,60.530138,-145.642065
AK,Covenant Life,59.397505,-136.123002
AK,Craig,55.488746,-133.111568
AK,Crooked Creek,61.796698,-158.08102
AK,Crown Point,60.426679,-149.35298
AK,Deering,66.069488,-162.764572
AK,Delta Junction,64.057347,-145.699997
AK,Deltana,63.78934,-145.351625
AK,Denali Park,63.573017,-148.673705
AK,Diamond Ridge,59.702361,-151.554623
AK,Dillingham,59.060467,-158.532251
AK,Diomede,65.753924,-168.922577
AK,Dot Lake,63.587223,-144.292361
AK,Dot Lake Village,63.662593,-144.016171
AK,Dry Creek,63.626638,-144.639194
AK,Eagle,64.781256,-141.197829
AK,Eagle Village,64.743389,-141.113834
AK,Eareckson Station,52.72106,174.107149
AK,Edna Bay,55.967618,-133.692253
AK,Eek,60.216265,-162.041999
AK,Egegik,58.205148,-157.521978
AK,Eielson AFB,64.6733,-147.059464
AK,Ekwok,59.345782,-157.487023
AK,Elfin Cove,58.087681,-136.288309
AK,Elim,64.618226,-162.27656
AK,Emmonak,62.77559,-164.50929
AK,Ester,64.879056,-148.041153
AK,Eureka Roadhouse,61.958507,-147.155104
AK,Evansville,66.932933,-151.37006
AK,Excursion Inlet,58.415144,-135.345462
AK,Fairbanks,64.836531,-147.651745
AK,False Pass,54.872441,-163.334268
AK,Farmers Loop,64.908228,-147.698608
AK,Farm Loop,61.635115,-149.155223
AK,Ferry,64.04962,-148.920602
AK,Fishhook,61.731248,-149.283642
AK,Flat,62.441366,-158.040554
AK,Fort Greely,63.967836,-145.714886
AK,Fort Yukon,66.588406,-145.227642
AK,Four Mile Road,64.604476,-149.115192
AK,Fox,64.974859,-147.609007
AK,Fox River,59.889921,-151.012102
AK,Fritz Creek,59.746867,-151.288605
AK,Funny River,60.484313,-150.788736
AK,Gakona,62.368038,-145.305188
AK,Galena,64.741422,-156.873394
AK,Gambell,63.775872,-171.714835
AK,Game Creek,58.050105,-135.512547
AK,Gateway,61.566857,-149.222683
AK,Glacier View,61.848035,-147.772591
AK,Glennallen,62.153867,-145.844069
AK,Goldstream,64.942151,-148.02732
AK,Golovin,64.563902,-162.998943
AK,Goodnews Bay,59.127165,-161.575325
AK,Grayling,62.896051,-160.112989
AK,Gulkana,62.215434,-145.444965
AK,Gustavus,58.434657,-135.728152
AK,Haines,59.249681,-135.468816
AK,Halibut Cove,59.569581,-151.223764
AK,Happy Valley,59.898514,-151.528868
AK,Harding-Birch Lakes,64.381305,-146.530601
AK,Healy,63.959632,-148.970842
AK,Healy Lake,64.009705,-144.681574
AK,Hobart Bay,57.417759,-133.306569
AK,Hollis,55.515474,-132.701922
AK,Holy Cross,62.185115,-159.858776
AK,Homer,59.647503,-151.513095
AK,Hoonah,58.12201,-135.431474
AK,Hooper Bay,61.509167,-166.111471
AK,Hope,60.886124,-149.632991
AK,Houston,61.615303,-149.80061
AK,Hughes,66.045217,-154.237627
AK,Huslia,65.705524,-156.310953
AK,Hydaburg,55.205842,-132.820438
AK,Hyder,55.981542,-130.038288
AK,Igiugig,59.300989,-155.863275
AK,Iliamna,59.778342,-154.883752
AK,Ivanof Bay,55.918199,-159.493298
AK,Juneau and,58.37291,-134.178445
AK,Kachemak,59.674535,-151.436347
AK,Kake,56.97532,-133.903663
AK,Kaktovik,70.121452,-143.629435
AK,Kalifornsky,60.453399,-151.220302
AK,Kaltag,64.314143,-158.778761
AK,Karluk,57.590981,-154.363413
AK,Kasaan,55.561145,-132.406834
AK,Kasigluk,60.86382,-162.536598
AK,Kasilof,60.319336,-151.232884
AK,Kenai,60.56224,-151.20806
AK,Kenny Lake,61.621616,-144.821315
AK,Ketchikan,55.357145,-131.674552
AK,Kiana,66.972586,-160.434364
AK,King Cove,55.084993,-162.316806
AK,King Salmon,58.735227,-156.528544
AK,Kipnuk,59.937456,-164.062221
AK,Kivalina,67.726893,-164.535573
AK,Klawock,55.556425,-133.08613
AK,Klukwan,59.398295,-135.88823
AK,Knik-Fairview,61.507645,-149.622601
AK,Knik River,61.461903,-149.007489
AK,Kobuk,66.923402,-156.904071
AK,Kodiak,57.791192,-152.419712
AK,Kodiak Station,57.76795,-152.595907
AK,Kokhanok,59.412109,-154.746007
AK,Koliganek,59.696656,-157.22476
AK,Kongiganak,59.991638,-162.847017
AK,Kotlik,63.02919,-163.536654
AK,Kotzebue,66.877089,-162.503478
AK,Koyuk,64.941084,-161.145458
AK,Koyukuk,64.902073,-157.693531
AK,Kupreanof,56.821295,-132.972152
AK,Kwethluk,60.793231,-161.430844
AK,Kwigillingok,59.877575,-163.177317
AK,Lake Louise,62.30162,-146.540163
AK,Lake Minchumina,63.790253,-152.461794
AK,Larsen Bay,57.529893,-154.001155
AK,Lazy Mountain,61.658227,-148.925582
AK,Levelock,59.068246,-156.901021
AK,Lime Village,61.33004,-155.233631
AK,Livengood,65.476506,-148.422784
AK,Loring,55.606676,-131.639976
AK,Lowell Point,60.076063,-149.493807
AK,Lower Kalskag,61.517121,-160.35465
AK,Lutak,59.412212,-135.589046
AK,McCarthy,61.453957,-142.864693
AK,McGrath,62.938875,-155.568422
AK,Manley Hot Springs,65.018757,-150.645281
AK,Manokotak,58.739523,-158.914501
AK,Marshall,61.871555,-162.06087
AK,Meadow Lakes,61.637987,-149.609611
AK,Mekoryuk,60.370179,-166.268173
AK,Mendeltna,62.146098,-146.758031
AK,Mentasta Lake,63.011677,-143.561486
AK,Mertarvik,60.810993,-164.49911
AK,Metlakatla,55.114699,-131.555726
AK,Mill Bay,57.815501,-152.367542
AK,Minto,65.089635,-149.59021
AK,Moose Creek,64.716369,-147.166627
AK,Moose Pass,60.505936,-149.468361
AK,Mosquito Lake,59.4751,-136.199101
AK,Mountain Village,62.091963,-163.695024
AK,Mud Bay,59.151183,-135.356493
AK,Nabesna,62.496548,-143.00743
AK,Naknek,58.78516,-156.885872
AK,Nanwalek,59.333848,-151.929558
AK,Napakiak,60.690541,-161.985573
AK,Napaskiak,60.702782,-161.753782
AK,Naukati Bay,55.874121,-133.195015
AK,Nelchina,62.010403,-146.829938
AK,Nelson Lagoon,55.836649,-161.635799
AK,Nenana,64.536054,-149.083629
AK,Newhalen,59.737057,-154.902414
AK,New Stuyahok,59.485309,-157.309089
AK,Newtok,60.935067,-164.645684
AK,Nightmute,60.462401,-164.83464
AK,Nikiski,60.725015,-151.225268
AK,Nikolaevsk,59.829553,-151.596382
AK,Nikolai,62.999115,-154.374944
AK,Nikolski,53.007863,-168.718502
AK,Ninilchik,60.061332,-151.40438
AK,Noatak,67.589482,-163.010434
AK,Nome,64.505741,-165.415287
AK,Nondalton,59.975246,-154.866046
AK,Noorvik,66.82821,-161.034669
AK,North Lakes,61.618378,-149.310724
AK,North Pole,64.752728,-147.362655
AK,Northway,63.000776,-141.541256
AK,Nuiqsut,70.213483,-150.989674
AK,Nulato,64.691283,-158.27535
AK,Nunam Iqua,62.506887,-164.900554
AK,Nunapitchuk,60.881739,-162.464569
AK,Old Harbor,57.218798,-153.329674
AK,Oscarville,60.723444,-161.788239
AK,Ouzinkie,57.92466,-152.462388
AK,Palmer,61.597168,-149.114679
AK,Paxson,62.975706,-145.757621
AK,Pedro Bay,59.789585,-154.141274
AK,Pelican,57.959229,-136.215066
AK,Perryville,55.934456,-159.155754
AK,Petersburg,56.756918,-132.874938
AK,Petersville,62.453484,-150.884124
AK,Pilot Point,57.541137,-157.722807
AK,Pilot Station,61.948167,-162.872648
AK,Pitkas Point,62.037403,-163.268128
AK,Platinum,58.952583,-161.747032
AK,Pleasant Valley,64.885468,-146.89855
AK,Point Baker,56.348132,-133.616794
AK,Point Hope,68.34421,-166.681159
AK,Point Lay,69.737117,-162.83412
AK,Point MacKenzie,61.3427,-150.048525
AK,Point Possession,60.923081,-150.688844
AK,Pope-Vannoy Landing,59.570602,-154.447236
AK,Portage Creek,58.90542,-157.669817
AK,Port Alexander,56.237593,-134.65275
AK,Port Alsworth,60.15673,-154.33961
AK,Port Clarence,65.108965,-166.764338
AK,Port Graham,59.339803,-151.846498
AK,Port Heiden,56.965241,-158.586416
AK,Port Lions,57.867012,-152.856248
AK,Port Protection,56.331881,-133.60642
AK,Primrose,60.341624,-149.296448
AK,Prudhoe Bay,70.365868,-148.749374
AK,Quinhagak,59.751279,-161.897243
AK,Rampart,65.404915,-149.921015
AK,Red Devil,61.75746,-157.358521
AK,Red Dog Mine,68.064411,-162.866869
AK,Ridgeway,60.530833,-151.052101
AK,Ruby,64.72329,-155.50054
AK,Russian Mission,61.778664,-161.362911
AK,St. George,56.571044,-169.65994
AK,St. Mary's,62.062775,-163.244257
AK,St. Michael,63.458499,-162.134486
AK,St. Paul,57.179076,-170.322824
AK,Salamatof,60.604212,-151.311289
AK,Salcha,64.534103,-146.88362
AK,Sand Point,55.31347,-160.484344
AK,Savoonga,63.679706,-170.483324
AK,Saxman,55.323165,-131.58915
AK,Scammon Bay,61.841929,-165.583279
AK,Selawik,66.598061,-160.000766
AK,Seldovia,59.43948,-151.710387
AK,Seldovia Village,59.46127,-151.588755
AK,Seward,60.124786,-149.391581
AK,Shageluk,62.661586,-159.551368
AK,Shaktoolik,64.354481,-161.193514
AK,Shishmaref,66.232966,-166.12533
AK,Shungnak,66.880505,-157.149979
AK,Silver Springs,62.019311,-145.358311
AK,Sitka and,57.193204,-135.367396
AK,Skagway,59.464431,-135.27572
AK,Skwentna,61.888689,-151.199994
AK,Slana,62.61786,-143.522398
AK,Sleetmute,61.653861,-157.10302
AK,Soldotna,60.485318,-151.069014
AK,South Lakes,61.587561,-149.315544
AK,South Naknek,58.675534,-156.994126
AK,South Van Horn,64.809734,-147.787752
AK,Stebbins,63.473394,-162.259981
AK,Steele Creek,64.925613,-147.435058
AK,Sterling,60.540148,-150.80526
AK,Stevens Village,66.023711,-149.080307
AK,Stony River,61.79201,-156.590509
AK,Sunrise,60.870068,-149.467798
AK,Susitna,61.546558,-150.588063
AK,Susitna North,62.153515,-149.728432
AK,Sutton-Alpine,61.741436,-148.874181
AK,Takotna,62.982698,-156.083829
AK,Talkeetna,62.309515,-149.923928
AK,Tanacross,63.328691,-143.486599
AK,Tanaina,61.657244,-149.42774
AK,Tanana,65.184004,-152.055102
AK,Tatitlek,60.894438,-146.668561
AK,Tazlina,62.050272,-145.443031
AK,Teller,65.252359,-166.352133
AK,Tenakee Springs,57.790054,-135.135446
AK,Tetlin,63.181865,-142.504418
AK,Thorne Bay,55.667027,-132.535653
AK,Togiak,59.049859,-160.397583
AK,Tok,63.328894,-143.037871
AK,Toksook Bay,60.527412,-165.106923
AK,Tolsona,62.067821,-146.12031
AK,Tonsina,61.530342,-145.110079
AK,Trapper Creek,62.415358,-150.407836
AK,Tuluksak,61.10435,-160.937231
AK,Tuntutuliak,60.410269,-162.669682
AK,Tununak,60.60713,-165.128009
AK,Twin Hills,59.081816,-160.280615
AK,Two Rivers,64.890845,-147.089884
AK,Tyonek,61.099425,-151.338909
AK,Ugashik,57.64738,-156.994926
AK,Unalakleet,63.894206,-160.796775
AK,Unalaska,53.910255,-166.529029
AK,Upper Kalskag,61.54027,-160.348983
AK,UtqiagÃávik,71.253861,-156.798246
AK,Valdez,61.083621,-146.317179
AK,Venetie,67.020691,-146.374273
AK,Wainwright,70.658232,-159.985214
AK,Wales,65.613232,-168.068313
AK,Wasilla,61.581136,-149.46079
AK,Whale Pass,56.082115,-133.067469
AK,White Mountain,64.682359,-163.412753
AK,Whitestone,64.152772,-145.906413
AK,Whitestone Logging Camp,58.058337,-135.409332
AK,Whittier,60.777318,-148.663713
AK,Willow,61.886957,-149.620229
AK,Willow Creek,61.830234,-145.198597
AK,Wiseman,67.480919,-150.15408
AK,Womens Bay,57.687002,-152.684656
AK,Wrangell and,56.180779,-132.026788
AK,Yakutat,59.563588,-139.606191
AZ,Aguila,33.9374,-113.167329
AZ,Ajo,32.392279,-112.883874
AZ,Ak Chin,32.287326,-112.009078
AZ,Ak-Chin Village,33.019602,-112.080875
AZ,Alamo Lake,34.255851,-113.500313
AZ,Ali Chuk,31.816919,-112.558394
AZ,Ali Chukson,31.911528,-111.801625
AZ,Ali Molina,31.902547,-111.780387
AZ,Alpine,33.845523,-109.143696
AZ,Amado,31.697358,-111.060803
AZ,Anegam,32.374193,-112.034963
AZ,Antares,35.422991,-113.808288
AZ,Anthem,33.846766,-112.126999
AZ,Apache Junction,33.398314,-111.535346
AZ,Arivaca,31.574938,-111.292611
AZ,Arivaca Junction,31.738891,-111.073596
AZ,Arizona City,32.750852,-111.670514
AZ,Arizona Village,34.854836,-114.589339
AZ,Arlington,33.334622,-112.77475
AZ,Ash Fork,35.217187,-112.4913
AZ,Avenue B and C,32.719042,-114.660049
AZ,Avondale,33.313236,-112.328928
AZ,Avra Valley,32.419132,-111.339442
AZ,Aztec,32.807567,-113.442477
AZ,Bagdad,34.577199,-113.176818
AZ,Bear Flat,34.291313,-111.067426
AZ,Beaver Dam,36.906981,-113.936181
AZ,Beaver Valley,34.342889,-111.299928
AZ,Bellemont,35.242474,-111.813807
AZ,Benson,31.914497,-110.328552
AZ,Beyerville,31.392047,-110.874917
AZ,Bisbee,31.398036,-109.931834
AZ,Bitter Springs,36.611699,-111.647483
AZ,Black Canyon City,34.071413,-112.122411
AZ,Blackwater,33.039565,-111.579932
AZ,Blue Ridge,34.640739,-111.107383
AZ,Bluewater,34.170415,-114.262886
AZ,Bouse,33.898476,-113.996364
AZ,Bowie,32.32488,-109.484456
AZ,Brenda,33.672082,-113.937883
AZ,Bryce,32.925827,-109.823078
AZ,Buckeye,33.431573,-112.641626
AZ,Buckshot,32.740349,-114.483064
AZ,Bullhead City,35.127371,-114.55599
AZ,Burnside,35.75336,-109.624792
AZ,Bylas,33.127656,-110.114922
AZ,Cactus Flats,32.760507,-109.721273
AZ,Cactus Forest,32.957823,-111.316922
AZ,Cameron,35.853193,-111.428585
AZ,Campo Bonito,32.562885,-110.69843
AZ,Camp Verde,34.569405,-111.857014
AZ,Cane Beds,36.934154,-112.911787
AZ,Canyon Day,33.778891,-110.038193
AZ,Carefree,33.823214,-111.913271
AZ,Carrizo,33.979354,-110.331096
AZ,Casa Blanca,33.115452,-111.908087
AZ,Casa Grande,32.906944,-111.762783
AZ,Casas Adobes,32.341834,-111.011593
AZ,Catalina,32.484779,-110.899712
AZ,Catalina Foothills,32.301872,-110.884843
AZ,Cave Creek,33.836219,-111.982084
AZ,Cedar Creek,33.891395,-110.195691
AZ,Centennial Park,36.953807,-112.981325
AZ,Central,32.86916,-109.790772
AZ,Central Heights-Midland City,33.400183,-110.81519
AZ,Chandler,33.282765,-111.851819
AZ,Charco,32.247321,-112.600116
AZ,Chiawuli Tak,31.940954,-111.776473
AZ,Chilchinbito,36.492002,-110.049213
AZ,Chinle,36.151148,-109.578682
AZ,Chino Valley,34.73989,-112.40606
AZ,Chloride,35.409702,-114.197242
AZ,Christopher Creek,34.321005,-111.007245
AZ,Chuichu,32.740329,-111.78219
AZ,Cibecue,34.030367,-110.49196
AZ,Cibola,33.374084,-114.676283
AZ,Cienega Springs,34.19974,-114.212713
AZ,Circle City,33.814877,-112.580993
AZ,Citrus Park,33.533598,-112.446326
AZ,Clacks Canyon,35.220358,-114.072299
AZ,Clarkdale,34.747979,-112.058699
AZ,Claypool,33.406101,-110.841873
AZ,Clay Springs,34.359259,-110.304334
AZ,Clifton,33.029568,-109.284037
AZ,Colorado City,36.970109,-112.985312
AZ,Comobabi,32.055397,-111.798824
AZ,Concho,34.473838,-109.608266
AZ,Congress,34.153356,-112.865555
AZ,Coolidge,32.933616,-111.523585
AZ,Copper Hill,33.430941,-110.746483
AZ,Cordes Lakes,34.3103,-112.107334
AZ,Cornfields,35.651242,-109.675658
AZ,Cornville,34.740788,-111.907355
AZ,Corona de Tucson,31.948571,-110.781868
AZ,Cottonwood,36.072152,-109.890109
AZ,Cottonwood,34.719536,-112.001613
AZ,Cowlic,31.804747,-111.987629
AZ,Crozier,35.422807,-113.648641
AZ,Crystal Beach,34.571382,-114.392634
AZ,Cutter,33.35838,-110.659327
AZ,Dateland,32.820903,-113.542177
AZ,Deer Creek,34.068786,-111.35185
AZ,Del Muerto,36.187393,-109.435935
AZ,Dennehotso,36.828998,-109.875694
AZ,Desert Hills,34.546463,-114.377956
AZ,Dewey-Humboldt,34.517396,-112.24965
AZ,Dilkon,35.352905,-110.307232
AZ,Dolan Springs,35.590453,-114.285179
AZ,Doney Park,35.265616,-111.518994
AZ,Donovan Estates,32.709359,-114.678145
AZ,Douglas,31.399274,-109.541292
AZ,Dragoon,32.021545,-110.034657
AZ,Drexel Heights,32.14526,-111.048061
AZ,Dripping Springs,33.104917,-110.754943
AZ,Drysdale,32.645241,-114.706769
AZ,Dudleyville,32.860011,-110.716494
AZ,Duncan,32.749981,-109.0884
AZ,Eagar,34.104991,-109.296996
AZ,East Fork,33.810682,-109.920953
AZ,East Globe,33.351132,-110.706186
AZ,East Verde Estates,34.298272,-111.364552
AZ,Ehrenberg,33.614208,-114.483007
AZ,El Capitan,33.238318,-110.78327
AZ,Elephant Head,31.766786,-110.991286
AZ,Elfrida,31.679238,-109.686879
AZ,Elgin,31.666552,-110.532704
AZ,El Mirage,33.590224,-112.327102
AZ,Eloy,32.741255,-111.594015
AZ,El Prado Estates,32.706214,-114.521481
AZ,First Mesa,35.831663,-110.368892
AZ,Flagstaff,35.185212,-111.620698
AZ,Florence,33.069367,-111.413992
AZ,Flowing Springs,34.309304,-111.334731
AZ,Flowing Wells,32.293767,-111.011055
AZ,Forest Lakes,34.329935,-110.810653
AZ,Fort Apache,33.790071,-109.988614
AZ,Fort Defiance,35.747502,-109.068018
AZ,Fort Mohave,35.000432,-114.574864
AZ,Fort Thomas,33.030364,-109.961258
AZ,Fortuna Foothills,32.661583,-114.397378
AZ,Fort Valley,35.322667,-111.739777
AZ,Fountain Hills,33.607799,-111.738398
AZ,Franklin,32.677031,-109.072064
AZ,Fredonia,36.961626,-112.516363
AZ,Freedom Acres,34.319886,-111.305152
AZ,Gadsden,32.556359,-114.781032
AZ,Ganado,35.691875,-109.555727
AZ,Geronimo Estates,34.369106,-111.361802
AZ,Gila Bend,32.966242,-112.715465
AZ,Gila Crossing,33.273015,-112.162668
AZ,Gilbert,33.310225,-111.743224
AZ,Gisela,34.101818,-111.288021
AZ,Glendale,33.533111,-112.189901
AZ,Globe,33.393642,-110.741106
AZ,Gold Canyon,33.363903,-111.422978
AZ,Golden Shores,34.781881,-114.477749
AZ,Golden Valley,35.206066,-114.232753
AZ,Goodyear,33.254031,-112.366472
AZ,Goodyear Village,33.197313,-111.872344
AZ,Grand Canyon Village,36.059483,-112.157912
AZ,Grand Canyon West,36.004418,-113.804103
AZ,Greasewood,35.52864,-109.860867
AZ,Greenehaven,36.99597,-111.556564
AZ,Green Valley,31.840843,-111.004482
AZ,Greer,34.005751,-109.460586
AZ,Guadalupe,33.366453,-111.963156
AZ,Gu Oidak,31.920289,-112.024057
AZ,Hackberry,35.340096,-113.725629
AZ,Haigler Creek,34.219634,-110.971427
AZ,Haivana Nakya,32.005154,-111.712418
AZ,Hard Rock,36.030238,-110.504157
AZ,Hayden,32.994887,-110.779872
AZ,Heber-Overgaard,34.414141,-110.569561
AZ,Holbrook,34.904624,-110.16721
AZ,Hondah,34.094297,-109.934383
AZ,Hotevilla-Bacavi,35.920744,-110.640714
AZ,Houck,35.269308,-109.22344
AZ,Huachuca City,31.630804,-110.342193
AZ,Hunter Creek,34.306974,-111.016516
AZ,Icehouse Canyon,33.34613,-110.801154
AZ,Indian Wells,35.40925,-110.114439
AZ,Jakes Corner,34.008227,-111.320226
AZ,Jeddito,35.768199,-110.12782
AZ,Jerome,34.747088,-112.107515
AZ,Joseph City,34.963693,-110.329039
AZ,J-Six Ranchettes,31.9666,-110.466357
AZ,Kachina Village,35.092432,-111.695974
AZ,Kaibab,36.879665,-112.725597
AZ,Kaibab Estates West,35.274797,-112.498543
AZ,Kaibito,36.592003,-111.107135
AZ,Kaka,32.512294,-112.313845
AZ,Katherine,35.22077,-114.561326
AZ,Kayenta,36.717169,-110.260459
AZ,Keams Canyon,35.820837,-110.203743
AZ,Kearny,33.056392,-110.907091
AZ,Kingman,35.216992,-114.010529
AZ,Kino Springs,31.364128,-110.809745
AZ,Klagetoh,35.499997,-109.530457
AZ,Kleindale,32.268112,-110.91458
AZ,Kohatk,32.578281,-112.003013
AZ,Kohls Ranch,34.321053,-111.083889
AZ,Komatke,33.296773,-112.162475
AZ,Ko Vaya,32.081502,-111.895875
AZ,Kykotsmovi Village,35.810245,-110.656849
AZ,Lake Havasu City,34.499809,-114.310943
AZ,Lake Montezuma,34.636908,-111.800945
AZ,Lake of the Woods,34.152635,-109.994275
AZ,La Paz Valley,33.558215,-114.243451
AZ,Lazy Y U,35.136913,-113.968463
AZ,LeChee,36.860892,-111.424438
AZ,Leupp,35.296609,-111.003626
AZ,Linden,34.269579,-110.136392
AZ,Litchfield Park,33.501761,-112.35947
AZ,Littlefield,36.865925,-113.935976
AZ,Lower Santan Village,33.142817,-111.785293
AZ,Low Mountain,35.948058,-110.100455
AZ,Lukachukai,36.411233,-109.225538
AZ,Lupton,35.354743,-109.052817
AZ,McConnico,35.163594,-114.089738
AZ,McNary,34.092153,-109.851376
AZ,McNeal,31.610078,-109.658267
AZ,Maish Vaya,32.170295,-112.134196
AZ,Mammoth,32.685174,-110.729279
AZ,Many Farms,36.342893,-109.637623
AZ,Marana,32.465939,-111.135401
AZ,Maricopa,33.041942,-111.999259
AZ,Maricopa Colony,33.36259,-112.226809
AZ,Martinez Lake,32.975468,-114.468228
AZ,Mayer,34.423271,-112.240747
AZ,Mead Ranch,34.346131,-111.142799
AZ,Meadview,35.953156,-114.078871
AZ,Mesa,33.400626,-111.716487
AZ,Mesa del Caballo,34.285904,-111.295227
AZ,Mescal,31.96743,-110.436582
AZ,Mesquite Creek,34.960658,-114.571402
AZ,Miami,33.395065,-110.872382
AZ,Miracle Valley,31.382924,-110.14853
AZ,Moccasin,36.909836,-112.754507
AZ,Moenkopi,36.112484,-111.221242
AZ,Mohave Valley,34.902431,-114.571389
AZ,Mojave Ranch Estates,34.944901,-114.590643
AZ,Morenci,33.058238,-109.333094
AZ,Mormon Lake,34.911054,-111.455151
AZ,Morris,33.855895,-112.612886
AZ,Mountainaire,35.093767,-111.645195
AZ,Mountain View Ranches,35.233569,-111.472767
AZ,Munds Park,34.938261,-111.628983
AZ,Naco,31.345999,-109.927089
AZ,Nazlini,35.911225,-109.474672
AZ,Nelson,32.429828,-111.26489
AZ,New Kingman-Butler,35.264487,-114.009073
AZ,New River,33.882591,-112.086107
AZ,Nogales,31.361928,-110.93482
AZ,Nolic,32.034183,-111.955021
AZ,North Fork,34.01057,-109.959543
AZ,Nutrioso,33.95127,-109.206202
AZ,Oak Creek Canyon,34.948928,-111.750429
AZ,Oak Springs,35.47602,-109.13182
AZ,Oatman,35.027375,-114.38386
AZ,Oljato-Monument Valley,36.987248,-110.209642
AZ,Oracle,32.608424,-110.782344
AZ,Orange Grove Mobile Manor,32.598451,-114.660588
AZ,Oro Valley,32.420713,-110.977
AZ,Oxbow Estates,34.18035,-111.343015
AZ,Padre Ranchitos,32.649591,-114.641584
AZ,Page,36.941815,-111.513283
AZ,Palominas,31.387556,-110.115065
AZ,Paradise Valley,33.552157,-111.96133
AZ,Parker,34.033963,-114.228159
AZ,Parker Strip,34.270721,-114.129689
AZ,Parks,35.285249,-111.967182
AZ,Patagonia,31.544744,-110.745463
AZ,Paulden,34.889655,-112.493724
AZ,Payson,34.243841,-111.318964
AZ,Peach Springs,35.53145,-113.43198
AZ,Peeples Valley,34.277224,-112.765341
AZ,Peoria,33.786186,-112.308042
AZ,Peridot,33.303346,-110.459033
AZ,Phoenix,33.572154,-112.090132
AZ,Picacho,32.710189,-111.494188
AZ,Picture Rocks,32.324713,-111.259861
AZ,Pima,32.891886,-109.844268
AZ,Pinal,33.380145,-110.757245
AZ,Pine,34.380348,-111.460476
AZ,Pinedale,34.320724,-110.259901
AZ,Pine Lake,35.088699,-113.873928
AZ,Pinetop Country Club,34.116435,-109.891009
AZ,Pinetop-Lakeside,34.148424,-109.965998
AZ,Pinion Pines,35.14663,-113.905814
AZ,Pinon,36.098856,-110.219116
AZ,Pirtleville,31.360894,-109.566052
AZ,Pisinemo,32.034917,-112.319228
AZ,Poston,33.99209,-114.404454
AZ,Prescott,34.585842,-112.446241
AZ,Prescott Valley,34.597921,-112.318532
AZ,Quartzsite,33.667507,-114.217041
AZ,Queen Creek,33.262193,-111.654511
AZ,Queen Valley,33.283043,-111.304973
AZ,Rainbow City,33.873031,-109.976277
AZ,Rancho Mesa Verde,32.594385,-114.655084
AZ,Red Lake,35.361487,-112.172127
AZ,Red Mesa,36.971111,-109.36982
AZ,Red Rock,36.601117,-109.064539
AZ,Red Rock,32.561182,-111.374004
AZ,Rillito,32.415531,-111.154822
AZ,Rincon Valley,32.109993,-110.688976
AZ,Rio Rico,31.498168,-110.987798
AZ,Rio Verde,33.726592,-111.675849
AZ,Rock House,33.630654,-110.941078
AZ,Rock Point,36.696848,-109.619491
AZ,Roosevelt,33.657393,-111.127051
AZ,Roosevelt Estates,33.62019,-110.999784
AZ,Rough Rock,36.409489,-109.868403
AZ,Round Rock,36.504256,-109.463156
AZ,Round Valley,34.187758,-111.301801
AZ,Rye,34.097775,-111.354263
AZ,Sacate Village,33.13986,-111.977566
AZ,Sacaton,33.077548,-111.762914
AZ,Sacaton Flats Village,33.05664,-111.661002
AZ,Saddlebrooke,32.556421,-110.874676
AZ,Safford,32.833273,-109.696044
AZ,Sahuarita,31.932238,-110.965395
AZ,St. David,31.886037,-110.221485
AZ,St. Johns,34.500368,-109.37691
AZ,St. Johns,33.308487,-112.197381
AZ,St. Michaels,35.660559,-109.096174
AZ,Salome,33.777771,-113.606047
AZ,San Carlos,33.344561,-110.477712
AZ,Sanders,35.209217,-109.319118
AZ,San Jose,32.817963,-109.5948
AZ,San Luis,32.486181,-114.723414
AZ,San Manuel,32.609133,-110.641508
AZ,San Miguel,31.629493,-111.780134
AZ,San Simon,32.268169,-109.2302
AZ,Santa Cruz,33.232701,-112.159368
AZ,San Tan Valley,33.178592,-111.562825
AZ,Santa Rosa,32.332488,-112.046255
AZ,Sawmill,35.886227,-109.158016
AZ,Scenic,36.793589,-114.012752
AZ,Scottsdale,33.684272,-111.861448
AZ,Seba Dalkai,35.478933,-110.4511
AZ,Second Mesa,35.851387,-110.49799
AZ,Sedona,34.858517,-111.793057
AZ,Sehili,36.280772,-109.185521
AZ,Seligman,35.325613,-112.857247
AZ,Sells,31.920874,-111.87087
AZ,Seven Mile,33.788181,-109.958554
AZ,Shongopovi,35.809701,-110.533441
AZ,Shonto,36.587043,-110.662477
AZ,Show Low,34.265053,-110.038321
AZ,Shumway,34.414544,-110.064907
AZ,Sierra Vista,31.56541,-110.314508
AZ,Sierra Vista Southeast,31.452512,-110.218977
AZ,Six Shooter Canyon,33.366782,-110.774601
AZ,Snowflake,34.521459,-110.091182
AZ,So-Hi,35.252725,-114.141482
AZ,Solomon,32.813811,-109.62893
AZ,Somerton,32.601816,-114.696344
AZ,Sonoita,31.66561,-110.639105
AZ,South Komelik,31.714472,-111.774415
AZ,South Tucson,32.195474,-110.969154
AZ,Springerville,34.171921,-109.306892
AZ,Spring Valley,34.345185,-112.159168
AZ,Stanfield,32.879365,-111.962771
AZ,Star Valley,34.254685,-111.220709
AZ,Steamboat,35.752636,-109.850583
AZ,Stotonic Village,33.153223,-111.817043
AZ,Strawberry,34.390929,-111.502656
AZ,Summerhaven,32.442172,-110.775031
AZ,Summit,32.062084,-110.94863
AZ,Sun City,33.6155,-112.283108
AZ,Sun City West,33.671383,-112.357187
AZ,Sunizona,31.885494,-109.63322
AZ,Sun Lakes,33.214955,-111.869973
AZ,Sunsites,31.941654,-109.840825
AZ,Sun Valley,34.982905,-110.031971
AZ,Sunwest,33.650984,-113.409131
AZ,Supai,36.229865,-112.692579
AZ,Superior,33.285091,-111.110917
AZ,Surprise,33.670801,-112.452546
AZ,Sweet Water Village,33.12,-111.837866
AZ,Swift Trail Junction,32.727193,-109.718114
AZ,Tacna,32.700435,-113.961785
AZ,Tanque Verde,32.268763,-110.743698
AZ,Tat Momoli,32.601195,-111.886129
AZ,Taylor,34.442748,-110.098534
AZ,Teec Nos Pos,36.933289,-109.064115
AZ,Tees Toh,35.486023,-110.405576
AZ,Tempe,33.388414,-111.931782
AZ,Thatcher,32.812708,-109.766516
AZ,Theba,32.918231,-112.889776
AZ,Three Points,32.05931,-111.286595
AZ,Timberline-Fernwood,35.316759,-111.550715
AZ,Tolani Lake,35.429788,-110.841172
AZ,Tolleson,33.44837,-112.256012
AZ,Tombstone,31.720407,-110.076304
AZ,Tonalea,36.321734,-110.966665
AZ,Tonopah,33.487986,-112.930811
AZ,Tonto Basin,33.841322,-111.30094
AZ,Tonto Village,34.319808,-111.139313
AZ,Topawa,31.807835,-111.830472
AZ,Topock,34.719972,-114.478792
AZ,Top-of-the-World,33.347668,-110.999724
AZ,Toyei,35.703817,-109.938174
AZ,Truxton,35.490372,-113.563011
AZ,Tsaile,36.302418,-109.218666
AZ,Tubac,31.610681,-111.057047
AZ,Tuba City,36.125076,-111.246654
AZ,Tucson,32.153036,-110.870773
AZ,Tucson Estates,32.179223,-111.126627
AZ,Tucson Mountains,32.282291,-111.077367
AZ,Tumacacori-Carmen,31.57099,-111.047652
AZ,Turkey Creek,33.801088,-109.9461
AZ,Tusayan,35.954961,-112.120195
AZ,Upper Santan Village,33.11641,-111.744131
AZ,Utting,33.854583,-113.912865
AZ,Vail,32.021706,-110.693687
AZ,Vaiva Vo,32.716654,-111.926902
AZ,Valencia West,32.135423,-111.110619
AZ,Valentine,35.38853,-113.659115
AZ,Valle,35.675239,-112.152886
AZ,Valle Vista,35.410944,-113.862688
AZ,Ventana,32.468048,-112.243447
AZ,Verde Village,34.711888,-111.994122
AZ,Vernon,34.247901,-109.689942
AZ,Vicksburg,33.729272,-113.8254
AZ,Village of Oak Creek (Big Park),34.781269,-111.7606
AZ,Wagon Wheel,34.197524,-110.027132
AZ,Wahak Hotrontk,32.174739,-112.366291
AZ,Wall Lane,32.657309,-114.710529
AZ,Walnut Creek,35.131243,-114.126631
AZ,Washington Park,34.400354,-111.271003
AZ,Wellton,32.640128,-114.215152
AZ,Wellton Hills,32.623189,-114.145234
AZ,Wenden,33.83245,-113.543239
AZ,Wet Camp Village,33.141223,-111.901662
AZ,Wheatfields,33.470937,-110.816135
AZ,Whetstone,31.718947,-110.291996
AZ,Whispering Pines,34.372721,-111.281223
AZ,Whitecone,35.604666,-110.080022
AZ,White Hills,35.724209,-114.400368
AZ,White Mountain Lake,34.344046,-109.986811
AZ,Whiteriver,33.83976,-109.96077
AZ,Why,32.258973,-112.730634
AZ,Wickenburg,33.994799,-112.758908
AZ,Wide Ruins,35.417387,-109.499551
AZ,Wikieup,34.693034,-113.599504
AZ,Wilhoit,34.408233,-112.615635
AZ,Willcox,32.251804,-109.835698
AZ,Williams,35.24664,-112.183296
AZ,Williamson,34.708293,-112.53373
AZ,Willow Canyon,32.387689,-110.700842
AZ,Willow Valley,34.927658,-114.626599
AZ,Window Rock,35.670505,-109.063037
AZ,Winkelman,32.98168,-110.761684
AZ,Winslow,35.024236,-110.709331
AZ,Winslow West,34.992554,-110.706847
AZ,Wintersburg,33.41963,-112.86765
AZ,Wittmann,33.774957,-112.525091
AZ,Woodruff,34.791876,-110.025944
AZ,Yarnell,34.228202,-112.76292
AZ,York,32.916258,-109.195402
AZ,Young,34.124091,-110.938324
AZ,Young,33.584969,-112.304916
AZ,Yucca,34.862993,-114.146145
AZ,Yuma,32.516286,-114.521782
AZ,Yuma Proving Ground,32.865186,-114.436923
AR,Acorn,34.638786,-94.200112
AR,Adona,35.03993,-92.899132
AR,Alexander,34.618588,-92.451217
AR,Alicia,35.892907,-91.08345
AR,Alix,35.422002,-93.728784
AR,Alleene,33.764823,-94.262198
AR,Allport,34.539866,-91.783886
AR,Alma,35.492388,-94.213745
AR,Almyra,34.405689,-91.410847
AR,Alpena,36.292752,-93.30371
AR,Alpine,34.226886,-93.378321
AR,Altheimer,34.327434,-91.847282
AR,Altus,35.44676,-93.764388
AR,Amagon,35.563173,-91.109415
AR,Amity,34.26619,-93.463423
AR,Anthonyville,35.039831,-90.340328
AR,Antoine,34.034536,-93.421361
AR,Aplin,34.967483,-92.981271
AR,Appleton,35.410823,-92.875276
AR,Arkadelphia,34.12738,-93.070851
AR,Arkansas City,33.608876,-91.204896
AR,Armorel,35.925571,-89.797959
AR,Ashdown,33.674529,-94.126627
AR,Ash Flat,36.23646,-91.606676
AR,Atkins,35.240863,-92.949643
AR,Aubrey,34.719817,-90.897981
AR,Augusta,35.28655,-91.36086
AR,Austin,35.005912,-91.989609
AR,Avilla,34.694843,-92.586141
AR,Avoca,36.394697,-94.06577
AR,Bald Knob,35.312539,-91.571253
AR,Banks,33.575796,-92.267101
AR,Barling,35.331286,-94.275195
AR,Bassett,35.535577,-90.129434
AR,Batavia,36.247852,-93.215771
AR,Batesville,35.768572,-91.622652
AR,Bauxite,34.559861,-92.499656
AR,Bay,35.746057,-90.552143
AR,Bearden,33.727651,-92.618678
AR,Beaver,36.473994,-93.777335
AR,Beebe,35.072433,-91.901059
AR,Bee Branch,35.462622,-92.401023
AR,Beedeville,35.429169,-91.110738
AR,Beirne,33.888208,-93.206223
AR,Bella Vista,36.466641,-94.266317
AR,Bellefonte,36.199864,-93.047039
AR,Belleville,35.09153,-93.445774
AR,Ben Lomond,33.829113,-94.123319
AR,Benton,34.577424,-92.572583
AR,Bentonville,36.355088,-94.242061
AR,Bergman,36.312786,-93.011221
AR,Berryville,36.371028,-93.570387
AR,Bethesda,35.787096,-91.792711
AR,Bigelow,34.997795,-92.631175
AR,Big Flat,36.003399,-92.410216
AR,Biggers,36.331361,-90.800701
AR,Birdsong,35.461161,-90.259761
AR,Bismarck,34.321836,-93.178139
AR,Black Oak,35.836485,-90.367568
AR,Black Rock,36.106237,-91.10748
AR,Black Springs,34.455977,-93.713115
AR,Blevins,33.871251,-93.578187
AR,Blue Eye,36.496667,-93.39771
AR,Blue Mountain,35.131796,-93.716666
AR,Bluff City,33.735118,-93.124564
AR,Blytheville,35.934066,-89.905133
AR,Board Camp,34.532519,-94.079674
AR,Bodcaw,33.56364,-93.393036
AR,Boles,34.788119,-94.049397
AR,Bonanza,35.231794,-94.416133
AR,Bono,35.911102,-90.800821
AR,Booneville,35.139329,-93.9175
AR,Bowman,35.816835,-90.496228
AR,Bradford,35.422004,-91.455232
AR,Bradley,33.100106,-93.656895
AR,Branch,35.308303,-93.95537
AR,Briarcliff,36.271968,-92.28209
AR,Brinkley,34.889781,-91.189819
AR,Brookland,35.897051,-90.571657
AR,Bryant,34.615059,-92.491338
AR,Buckner,33.35727,-93.435556
AR,Buffalo City,36.16912,-92.438068
AR,Bull Shoals,36.37357,-92.591504
AR,Burdette,35.815273,-89.946421
AR,Cabot,34.975106,-92.028288
AR,Caddo Gap,34.402494,-93.617881
AR,Caddo Valley,34.180746,-93.084597
AR,Caldwell,35.074794,-90.809455
AR,Cale,33.627888,-93.232797
AR,Calico Rock,36.121965,-92.125913
AR,Calion,33.328406,-92.540187
AR,Camden,33.567672,-92.849064
AR,Cammack Village,34.7808,-92.344976
AR,Campbell Station,35.667799,-91.253754
AR,Canehill,35.913765,-94.397321
AR,Caraway,35.760222,-90.322081
AR,Carlisle,34.795425,-91.740494
AR,Carthage,34.072605,-92.555312
AR,Casa,35.024966,-93.045507
AR,Cash,35.801157,-90.931648
AR,Caulksville,35.301849,-93.867806
AR,Cave City,35.948169,-91.54675
AR,Cave Springs,36.26843,-94.219503
AR,Cedarville,35.583054,-94.361555
AR,Center Point,34.031828,-93.951166
AR,Center Ridge,35.380707,-92.575626
AR,Centerton,36.355148,-94.297692
AR,Centerville,35.115702,-93.171461
AR,Central City,35.336381,-94.238042
AR,Charleston,35.294515,-94.04835
AR,Cherokee City,36.294698,-94.576804
AR,Cherokee Village,36.291321,-91.569368
AR,Cherry Valley,35.402762,-90.753617
AR,Chester,35.677772,-94.177828
AR,Chidester,33.701947,-93.023799
AR,Cincinnati,36.045324,-94.527314
AR,Clarendon,34.692974,-91.306292
AR,Clarkedale,35.297028,-90.21025
AR,Clarksville,35.453918,-93.481558
AR,Clinton,35.578981,-92.455735
AR,Coal Hill,35.436892,-93.665193
AR,College Station,34.700535,-92.228432
AR,Collins,33.532266,-91.57244
AR,Colt,35.132897,-90.812933
AR,Concord,35.66633,-91.860623
AR,Conway,35.07435,-92.467078
AR,Corinth,35.069508,-93.420089
AR,Corning,36.413682,-90.583609
AR,Cotter,36.281898,-92.520821
AR,Cotton Plant,35.005918,-91.25205
AR,Cove,34.438983,-94.422321
AR,Coy,34.540484,-91.871295
AR,Crawfordsville,35.226672,-90.324168
AR,Crossett,33.126834,-91.963044
AR,Crystal Springs,34.524828,-93.333623
AR,Cushman,35.865845,-91.778094
AR,Daisy,34.235924,-93.739193
AR,Damascus,35.367092,-92.410712
AR,Danville,35.052457,-93.391199
AR,Dardanelle,35.226305,-93.165909
AR,Datto,36.392471,-90.728499
AR,Decatur,36.341103,-94.451344
AR,Deer,35.828023,-93.219622
AR,Delaplaine,36.230393,-90.725646
AR,Delight,34.02953,-93.506555
AR,Dell,35.857166,-90.034076
AR,Dennard,35.747919,-92.549999
AR,Denning,35.425153,-93.756758
AR,De Queen,34.042245,-94.342133
AR,Dermott,33.526206,-91.432296
AR,Des Arc,34.978433,-91.506835
AR,Desha,35.730455,-91.685579
AR,De Valls Bluff,34.785865,-91.461071
AR,DeWitt,34.287369,-91.338326
AR,Diamond City,36.457609,-92.910989
AR,Diaz,35.648773,-91.258933
AR,Dierks,34.119961,-94.017283
AR,Donaldson,34.234976,-92.919517
AR,Dora,35.462853,-94.429694
AR,Dover,35.390981,-93.114241
AR,Drasco,35.633775,-91.941776
AR,Dumas,33.883372,-91.485632
AR,Dyer,35.494367,-94.138805
AR,Dyess,35.589338,-90.213293
AR,Earle,35.273379,-90.464304
AR,East Camden,33.608421,-92.744966
AR,East End,34.554505,-92.327475
AR,Edgemont,35.600686,-92.196371
AR,Edmondson,35.105035,-90.305452
AR,Egypt,35.867775,-90.945834
AR,Elaine,34.308603,-90.853349
AR,El Dorado,33.218982,-92.664071
AR,Elkins,36.017217,-94.023497
AR,Elm Springs,36.206224,-94.237904
AR,El Paso,35.115298,-92.081189
AR,Emerson,33.097328,-93.195976
AR,Emmet,33.722539,-93.466156
AR,England,34.545431,-91.967442
AR,Enola,35.195907,-92.206581
AR,Etowah,35.715758,-90.230682
AR,Eudora,33.118866,-91.264033
AR,Eureka Springs,36.410774,-93.744904
AR,Evansville,35.790635,-94.488844
AR,Evening Shade,36.069933,-91.621881
AR,Everton,36.15414,-92.909538
AR,Fairfield Bay,35.601101,-92.266208
AR,Fair Oaks,35.248002,-91.036017
AR,Fargo,34.953995,-91.179744
AR,Farmington,36.036581,-94.252466
AR,Fayetteville,36.071455,-94.166564
AR,Felsenthal,33.060826,-92.148961
AR,Fifty-Six,35.96351,-92.233355
AR,Fisher,35.491424,-90.972494
AR,Flippin,36.27732,-92.59353
AR,Floral,35.588939,-91.758932
AR,Floyd,35.198879,-91.96453
AR,Fordyce,33.818125,-92.417388
AR,Foreman,33.719494,-94.397668
AR,Forrest City,35.013599,-90.793207
AR,Fort Smith,35.349276,-94.370883
AR,Fouke,33.262235,-93.88523
AR,Fountain Hill,33.357545,-91.851141
AR,Fountain Lake,34.609848,-92.919774
AR,Fourche,34.993128,-92.618944
AR,Fox,35.784398,-92.299626
AR,Franklin,36.1727,-91.769724
AR,Fredonia (Biscoe),34.81937,-91.41016
AR,Friendship,34.224344,-93.00366
AR,Fulton,33.612565,-93.813795
AR,Gamaliel,36.45189,-92.236928
AR,Garfield,36.455428,-93.975782
AR,Garland,33.360958,-93.71417
AR,Garner,35.142496,-91.779184
AR,Gassville,36.284949,-92.48683
AR,Gateway,36.488902,-93.933087
AR,Genoa,33.377487,-93.882415
AR,Gentry,36.259553,-94.490876
AR,George,35.126678,-91.453923
AR,Gibson,34.902228,-92.240817
AR,Gilbert,35.990981,-92.716181
AR,Gillett,34.119172,-91.379133
AR,Gillham,34.168628,-94.312977
AR,Gilmore,35.413994,-90.29558
AR,Glenwood,34.328314,-93.527255
AR,Goodwin,34.940726,-91.003576
AR,Goshen,36.102458,-94.001579
AR,Gosnell,35.964937,-89.968577
AR,Gould,33.987194,-91.564038
AR,Grady,34.078758,-91.697646
AR,Grannis,34.240165,-94.321995
AR,Gravette,36.428296,-94.368529
AR,Greenbrier,35.228843,-92.383568
AR,Green Forest,36.33471,-93.430962
AR,Greenland,35.996194,-94.19089
AR,Greenway,36.340577,-90.222124
AR,Greenwood,35.211348,-94.239444
AR,Greers Ferry,35.574966,-92.165959
AR,Gregory,35.153332,-91.334241
AR,Griffithville,35.123053,-91.64497
AR,Grubbs,35.653999,-91.075464
AR,Guion,35.926834,-91.938927
AR,Gum Springs,34.063937,-93.095709
AR,Gurdon,33.916032,-93.15391
AR,Guy,35.327322,-92.336661
AR,Hackett,35.188027,-94.410341
AR,Hagarville,35.515017,-93.332135
AR,Halley,33.536255,-91.323651
AR,Hamburg,33.224755,-91.797247
AR,Hampton,33.534763,-92.466607
AR,Hardy,36.319645,-91.481503
AR,Harrell,33.509869,-92.400061
AR,Harrisburg,35.563772,-90.721615
AR,Harrison,36.242592,-93.11765
AR,Hartford,35.023433,-94.379406
AR,Hartman,35.43525,-93.628245
AR,Haskell,34.509238,-92.641861
AR,Hatfield,34.484507,-94.37991
AR,Hattieville,35.295226,-92.775351
AR,Havana,35.109809,-93.526022
AR,Haynes,34.890933,-90.792662
AR,Hazen,34.781368,-91.558058
AR,Heber Springs,35.499554,-92.029339
AR,Hector,35.462913,-92.97913
AR,Helena-West Helena,34.531325,-90.620057
AR,Henderson,36.377214,-92.218918
AR,Hensley,34.51041,-92.209517
AR,Hermitage,33.447372,-92.171455
AR,Hickory Ridge,35.402812,-90.994458
AR,Higden,35.566406,-92.20518
AR,Higginson,35.196813,-91.715175
AR,Highfill,36.274375,-94.323862
AR,Highland,36.26943,-91.519824
AR,Hindsville,36.147719,-93.86488
AR,Holiday Island,36.484211,-93.736832
AR,Holland,35.166012,-92.277049
AR,Holly Grove,34.601497,-91.200255
AR,Hope,33.668164,-93.588885
AR,Horatio,33.942739,-94.356201
AR,Horseshoe Bend,36.218726,-91.738324
AR,Horseshoe Lake,34.913753,-90.307722
AR,Hot Springs,34.489442,-93.050254
AR,Hot Springs Village,34.658069,-92.968643
AR,Houston,35.034879,-92.694525
AR,Hoxie,36.036041,-90.973588
AR,Hughes,34.948109,-90.471372
AR,Humnoke,34.542242,-91.759656
AR,Humphrey,34.42237,-91.702454
AR,Hunter,35.05456,-91.122855
AR,Huntington,35.08171,-94.266319
AR,Huntsville,36.098656,-93.733244
AR,Huttig,33.04032,-92.179678
AR,Imboden,36.199696,-91.177386
AR,Indian Bay,34.38712,-91.069561
AR,Ivan,33.901968,-92.433196
AR,Jacksonport,35.642177,-91.307914
AR,Jacksonville,34.880512,-92.13059
AR,Jasper,36.012102,-93.1875
AR,Jennette,35.158127,-90.418765
AR,Jericho,35.287677,-90.230466
AR,Jerome,33.398595,-91.469807
AR,Jerusalem,35.40757,-92.823013
AR,Johnson,36.133854,-94.174269
AR,Joiner,35.50739,-90.150706
AR,Jonesboro,35.819755,-90.679033
AR,Jones Mills,34.444947,-92.901539
AR,Judsonia,35.276431,-91.641614
AR,Junction City,33.022091,-92.723616
AR,Keiser,35.673984,-90.095843
AR,Kensett,35.2352,-91.671256
AR,Keo,34.609287,-92.011566
AR,Kibler,35.425237,-94.236145
AR,Kingsland,33.857975,-92.297789
AR,Kingston,36.056744,-93.514735
AR,Kirby,34.254291,-93.654873
AR,Knobel,36.319986,-90.602266
AR,Knoxville,35.377537,-93.361839
AR,Lacey,33.450347,-91.849554
AR,Lafe,36.209178,-90.504292
AR,LaGrange,34.655757,-90.734742
AR,Lake City,35.81937,-90.453905
AR,Lake Hamilton,34.429621,-93.076352
AR,Lakeview,36.373907,-92.538735
AR,Lake View,34.42116,-90.813314
AR,Lake Village,33.32918,-91.284794
AR,Lamar,35.444425,-93.394675
AR,Landmark,34.610352,-92.316045
AR,Lavaca,35.330199,-94.182885
AR,Lawson,33.19996,-92.487896
AR,Leachville,35.911468,-90.254955
AR,Lead Hill,36.413611,-92.907167
AR,Leola,34.170087,-92.591412
AR,Lepanto,35.608528,-90.332985
AR,Leslie,35.829508,-92.555961
AR,Letona,35.363502,-91.829547
AR,Lewisville,33.360132,-93.583971
AR,Lexa,34.598248,-90.751887
AR,Lincoln,35.948834,-94.417468
AR,Little Flock,36.383335,-94.137265
AR,Little Rock,34.72398,-92.357609
AR,Lockesburg,33.972871,-94.179584
AR,London,35.327616,-93.243466
AR,Lonoke,34.790501,-91.907362
AR,Lonsdale,34.544967,-92.810563
AR,Lost Bridge Village,36.389728,-93.915536
AR,Louann,33.391481,-92.792214
AR,Lowell,36.255855,-94.153356
AR,Luxora,35.757672,-89.92948
AR,Lynn,36.004263,-91.252
AR,McAlmont,34.792492,-92.196013
AR,McCaskill,33.919539,-93.636831
AR,McCrory,35.257326,-91.197276
AR,McDougal,36.436465,-90.390727
AR,McGehee,33.627794,-91.39501
AR,McNab,33.660895,-93.832282
AR,McNeil,33.347917,-93.208404
AR,McRae,35.113627,-91.826194
AR,Madison,35.017993,-90.73115
AR,Magazine,35.153901,-93.807851
AR,Magness,35.703055,-91.482237
AR,Magnet Cove,34.449161,-92.837719
AR,Magnolia,33.276698,-93.226247
AR,Malvern,34.373579,-92.82125
AR,Mammoth Spring,36.49241,-91.541067
AR,Manila,35.88466,-90.165408
AR,Mansfield,35.063915,-94.234269
AR,Marianna,34.77363,-90.767501
AR,Marie,35.612931,-90.082963
AR,Marion,35.204246,-90.206715
AR,Marked Tree,35.527889,-90.42661
AR,Marmaduke,36.190028,-90.385061
AR,Marshall,35.908461,-92.646498
AR,Marvell,34.556304,-90.915338
AR,Maumelle,34.852344,-92.399995
AR,Mayflower,34.980324,-92.419355
AR,Maynard,36.421493,-90.901804
AR,Maysville,36.401975,-94.588951
AR,Melbourne,36.063971,-91.88152
AR,Mellwood,34.215475,-90.944687
AR,Mena,34.580834,-94.237096
AR,Menifee,35.149702,-92.55042
AR,Midland,35.092403,-94.352955
AR,Midway,36.39224,-92.475532
AR,Midway,34.249893,-92.973433
AR,Mineral Springs,33.877723,-93.921386
AR,Minturn,35.976417,-91.027188
AR,Mitchellville,33.905333,-91.498398
AR,Monette,35.893208,-90.344106
AR,Monroe,34.73404,-91.106766
AR,Monticello,33.624778,-91.793722
AR,Montrose,33.298925,-91.49644
AR,Moorefield,35.767228,-91.570807
AR,Moro,34.791976,-90.987984
AR,Morrilton,35.155456,-92.738932
AR,Morrison Bluff,35.381952,-93.518854
AR,Morrow,35.856329,-94.430562
AR,Mountainburg,35.649625,-94.162407
AR,Mountain Home,36.335108,-92.384062
AR,Mountain Pine,34.569642,-93.171493
AR,Mountain View,35.861559,-92.109657
AR,Mount Holly,33.307223,-92.950213
AR,Mount Ida,34.549153,-93.629939
AR,Mount Judea,35.926173,-93.056804
AR,Mount Olive,36.003119,-92.090465
AR,Mount Pleasant,35.981423,-91.777383
AR,Mount Vernon,35.223605,-92.12398
AR,Mulberry,35.5085,-94.074753
AR,Murfreesboro,34.070312,-93.694073
AR,Nashville,33.941924,-93.851658
AR,Natural Steps,34.874266,-92.497772
AR,Newark,35.70763,-91.4434
AR,New Blaine,35.29252,-93.419083
AR,New Edinburg,33.756223,-92.240365
AR,Newhope,34.222258,-93.877396
AR,Newport,35.623772,-91.231682
AR,Nimmons,36.30625,-90.095055
AR,Norfork,36.209469,-92.277844
AR,Norman,34.458977,-93.676824
AR,Norphlet,33.319889,-92.662009
AR,North Crossett,33.174113,-91.931736
AR,North Little Rock,34.781752,-92.235057
AR,Oak Grove,36.463958,-93.430143
AR,Oak Grove,35.364779,-92.964179
AR,Oak Grove Heights,36.126432,-90.503435
AR,Oakhaven,33.729396,-93.620783
AR,Oakland,36.460423,-92.571771
AR,Oark,35.694977,-93.575027
AR,Oden,34.623149,-93.783646
AR,Ogden,33.585869,-94.046917
AR,Oil Trough,35.629162,-91.461229
AR,O'Kean,36.171462,-90.818348
AR,Okolona,34.000478,-93.337624
AR,Ola,35.031448,-93.224035
AR,Omaha,36.461647,-93.189964
AR,Oneida,34.460486,-90.786721
AR,Oppelo,35.100558,-92.773566
AR,Osceola,35.694195,-89.993421
AR,Oxford,36.20903,-91.918268
AR,Ozan,33.846611,-93.720822
AR,Ozark,35.501858,-93.848378
AR,Ozark Acres,36.299916,-91.387076
AR,Ozone,35.638491,-93.447317
AR,Palestine,34.970307,-90.908225
AR,Pangburn,35.426108,-91.839411
AR,Paragould,36.05229,-90.51047
AR,Paris,35.289127,-93.724947
AR,Parkdale,33.121215,-91.546399
AR,Parkin,35.261175,-90.553508
AR,Patmos,33.511369,-93.566956
AR,Patterson,35.258973,-91.234957
AR,Payneway,35.545728,-90.512297
AR,Peach Orchard,36.281229,-90.660774
AR,Pearcy,34.435455,-93.288217
AR,Pea Ridge,36.446651,-94.120807
AR,Pencil Bluff,34.630384,-93.735033
AR,Perla,34.364755,-92.776228
AR,Perry,35.046221,-92.79441
AR,Perry,33.697141,-93.532407
AR,Perryville,35.012,-92.802938
AR,Piggott,36.387191,-90.198944
AR,Pindall,36.063663,-92.862158
AR,Pine Bluff,34.211591,-92.017555
AR,Pineville,36.161145,-92.106471
AR,Piney,34.502914,-93.144427
AR,Plainview,34.989874,-93.297948
AR,Pleasant Grove,35.820465,-91.906976
AR,Pleasant Plains,35.55453,-91.627246
AR,Plumerville,35.159377,-92.643059
AR,Pocahontas,36.263904,-90.970826
AR,Pollard,36.429561,-90.267129
AR,Ponca,36.029292,-93.362376
AR,Poplar Grove,34.552169,-90.854223
AR,Portia,36.084865,-91.071044
AR,Portland,33.237935,-91.510945
AR,Pottsville,35.230606,-93.060839
AR,Powhatan,36.087312,-91.123884
AR,Poyen,34.324169,-92.641976
AR,Prairie Creek,36.329478,-94.058933
AR,Prairie Grove,35.986113,-94.303383
AR,Prattsville,34.318495,-92.543146
AR,Prescott,33.80432,-93.391207
AR,Princeton,33.97754,-92.624178
AR,Pyatt,36.250744,-92.846637
AR,Quitman,35.381723,-92.214724
AR,Ratcliff,35.306946,-93.888636
AR,Ravenden,36.243201,-91.251307
AR,Ravenden Springs,36.312705,-91.223265
AR,Reader,33.75161,-93.101184
AR,Rector,36.264158,-90.293518
AR,Redfield,34.439337,-92.188484
AR,Reed,33.701672,-91.445758
AR,Reyno,36.360899,-90.758993
AR,Rison,33.959951,-92.193648
AR,Rivervale,35.675877,-90.3445
AR,Rockport,34.407063,-92.806678
AR,Rockwell,34.464341,-93.133829
AR,Roe,34.631101,-91.385963
AR,Rogers,36.318085,-94.152287
AR,Roland,34.90224,-92.517469
AR,Rondo,34.657447,-90.820842
AR,Rose Bud,35.321183,-92.076515
AR,Rosston,33.588019,-93.286934
AR,Rover,34.951824,-93.408964
AR,Rudy,35.527455,-94.240384
AR,Russell,35.362126,-91.509947
AR,Russellville,35.276328,-93.138743
AR,Rye,33.750475,-91.998485
AR,St. Charles,34.372999,-91.137446
AR,St. Francis,36.454872,-90.142179
AR,St. Joe,36.026028,-92.801276
AR,St. Paul,35.826791,-93.767285
AR,Salado,35.695405,-91.592317
AR,Salem,36.370416,-91.821706
AR,Salem,34.630899,-92.561492
AR,Salesville,36.23906,-92.277495
AR,Saratoga,33.743741,-93.904289
AR,Sardis,34.533041,-92.406722
AR,Scott,34.69766,-92.093932
AR,Scranton,35.36043,-93.539724
AR,Searcy,35.241134,-91.735223
AR,Sedgwick,35.974161,-90.862149
AR,Shannon Hills,34.617586,-92.402176
AR,Sheridan,34.321575,-92.443067
AR,Sherrill,34.385065,-91.951808
AR,Sherwood,34.852029,-92.204483
AR,Shirley,35.643751,-92.313519
AR,Sidney,36.004421,-91.658289
AR,Siloam Springs,36.184612,-94.531517
AR,Smackover,33.363589,-92.731425
AR,Smithville,36.079921,-91.302675
AR,South Lead Hill,36.395614,-92.906209
AR,Southside,35.720183,-91.630162
AR,Sparkman,33.917168,-92.849997
AR,Springdale,36.192698,-94.156271
AR,Springfield,35.272887,-92.554988
AR,Spring,36.260285,-94.423812
AR,Stamps,33.354959,-93.497879
AR,Star City,33.94078,-91.839962
AR,Staves,34.033579,-92.280583
AR,Stephens,33.420917,-93.06959
AR,Strawberry,35.966523,-91.321102
AR,Strong,33.107883,-92.355573
AR,Stuttgart,34.495233,-91.548638
AR,Subiaco,35.297367,-93.639439
AR,Success,36.454501,-90.722625
AR,Sulphur Rock,35.751629,-91.500253
AR,Sulphur Springs,36.484076,-94.460095
AR,Sulphur Springs,34.17145,-92.132055
AR,Summers,35.987194,-94.482872
AR,Summit,36.252203,-92.688287
AR,Sunset,35.223979,-90.205642
AR,Sweet Home,34.667397,-92.246304
AR,Swifton,35.824376,-91.129429
AR,Taylor,33.099802,-93.461843
AR,Texarkana,33.436339,-93.987118
AR,Thornton,33.774876,-92.487651
AR,Tillar,33.711,-91.451812
AR,Tinsman,33.629183,-92.353295
AR,Tollette,33.818095,-93.896899
AR,Tonti,36.167388,-94.242128
AR,Traskwood,34.452451,-92.666438
AR,Trumann,35.677023,-90.525897
AR,Tucker,34.439523,-91.951907
AR,Tuckerman,35.7257,-91.202133
AR,Tull,34.441214,-92.585881
AR,Tumbling Shoals,35.547053,-91.96746
AR,Tupelo,35.390332,-91.229904
AR,Turrell,35.374609,-90.270384
AR,Twin Groves,35.329207,-92.405668
AR,Tyronza,35.486771,-90.356008
AR,Ulm,34.576229,-91.461691
AR,Union,35.585222,-94.446997
AR,Urbana,33.158452,-92.445361
AR,Valley Springs,36.153768,-92.989698
AR,Van Buren,35.451176,-94.354003
AR,Vandervoort,34.379781,-94.364919
AR,Vanndale,35.315292,-90.771114
AR,Victoria,35.757424,-90.060145
AR,Vilonia,35.078702,-92.215387
AR,Viola,36.399237,-91.986977
AR,Violet Hill,36.152899,-91.839723
AR,Wabbaseka,34.359805,-91.793777
AR,Walcott,36.046118,-90.670497
AR,Waldenburg,35.565255,-90.934561
AR,Waldo,33.351923,-93.295393
AR,Waldron,34.903252,-94.094839
AR,Walnut Ridge,36.084834,-90.94671
AR,Ward,35.013782,-91.957727
AR,Warm Springs,36.483148,-91.049008
AR,Warren,33.611829,-92.067718
AR,Washington,33.772882,-93.683293
AR,Watson,33.89375,-91.257061
AR,Wayton,35.919363,-93.259588
AR,Weiner,35.619714,-90.905303
AR,Weldon,35.447994,-91.231606
AR,Wesley,36.032535,-93.918624
AR,West Crossett,33.148043,-92.016978
AR,Western Grove,36.101118,-92.954554
AR,West Fork,35.934924,-94.18111
AR,West Memphis,35.149554,-90.199266
AR,West Point,35.203307,-91.609897
AR,Wheatley,34.921186,-91.106255
AR,Whelen Springs,33.833144,-93.126029
AR,White Hall,34.275179,-92.100649
AR,Wickes,34.299736,-94.327252
AR,Widener,35.023498,-90.681934
AR,Wiederkehr Village,35.477705,-93.764725
AR,Wilburn,35.508788,-91.888375
AR,Williford,36.251832,-91.360457
AR,Willisville,33.516119,-93.293665
AR,Wilmar,33.626384,-91.929342
AR,Wilmot,33.056963,-91.577858
AR,Wilson,35.565961,-90.0418
AR,Wilton,33.738728,-94.147987
AR,Winchester,33.774074,-91.4737
AR,Winslow,35.801542,-94.131779
AR,Winthrop,33.830837,-94.354222
AR,Witts Springs,35.770268,-92.882285
AR,Woodlawn,33.966736,-92.045239
AR,Woodson,34.539726,-92.222549
AR,Wooster,35.199919,-92.450204
AR,Wrightsville,34.620714,-92.219607
AR,Wynne,35.235224,-90.788513
AR,Yar Landing,33.718829,-94.009261
AR,Yellville,36.228846,-92.686123
AR,Zinc,36.283959,-92.914422
CA,Acalanes Ridge,37.904725,-122.078567
CA,Acampo,38.173529,-121.279892
CA,Acton,34.49607,-118.183897
CA,Adelanto,34.580902,-117.439458
CA,Adin,41.199312,-120.956779
CA,Agoura Hills,34.148942,-118.76393
CA,Agua Dulce,34.501678,-118.32068
CA,Aguanga,33.452246,-116.85547
CA,Ahwahnee,37.365423,-119.716561
CA,Airport,37.633883,-120.972006
CA,Alameda,37.741911,-122.259914
CA,Alamo,37.854768,-122.013557
CA,Albany,37.89065,-122.318116
CA,Albion,39.225327,-123.757586
CA,Alderpoint,40.161347,-123.615729
CA,Alhambra,34.083571,-118.136444
CA,Alhambra Valley,37.966744,-122.135998
CA,Aliso Viejo,33.57921,-117.728898
CA,Alleghany,39.46666,-120.841126
CA,Allendale,38.442986,-121.98333
CA,Allensworth,35.849878,-119.389209
CA,Almanor,40.214494,-121.17622
CA,Alondra Park,33.890155,-118.335678
CA,Alpaugh,35.889037,-119.485809
CA,Alpine,32.842487,-116.755911
CA,Alpine Village,38.779346,-119.807785
CA,Alta,39.215685,-120.798509
CA,Altadena,34.192212,-118.135589
CA,Alta Sierra,35.725776,-118.545166
CA,Alta Sierra,39.126174,-121.049085
CA,Alto,37.905581,-122.518718
CA,Alturas,41.489136,-120.551286
CA,Alum Rock,37.369408,-121.823809
CA,Amador City,38.418995,-120.82326
CA,Amador Pines,38.489631,-120.533305
CA,American Canyon,38.179033,-122.259602
CA,Amesti,36.959483,-121.781739
CA,Anaheim,33.855502,-117.758657
CA,Anchor Bay,38.812653,-123.570267
CA,Anderson,40.449755,-122.29507
CA,Angels,38.071037,-120.551729
CA,Angwin,38.577875,-122.451224
CA,Antelope,38.71533,-121.360962
CA,Antioch,37.978336,-121.796064
CA,Anza,33.56159,-116.696066
CA,Apple Valley,34.533376,-117.210358
CA,Aptos,36.99115,-121.893457
CA,Aptos Hills-Larkin Valley,36.963492,-121.835214
CA,Arbuckle,39.014195,-122.061043
CA,Arcadia,34.132689,-118.036347
CA,Arcata,40.862291,-124.074967
CA,Arden-Arcade,38.602294,-121.384007
CA,Armona,36.316607,-119.70538
CA,Arnold,38.248642,-120.350989
CA,Aromas,36.874755,-121.630732
CA,Arroyo Grande,35.124149,-120.584533
CA,Artesia,33.867591,-118.080634
CA,Artois,39.633179,-122.189758
CA,Arvin,35.194361,-118.830569
CA,Ashland,37.694197,-122.115937
CA,Aspen Springs,37.548791,-118.699663
CA,Atascadero,35.485718,-120.687942
CA,Atherton,37.457072,-122.201058
CA,Atwater,37.354049,-120.597177
CA,Auberry,37.088654,-119.450757
CA,Auburn,38.895075,-121.076739
CA,Auburn Lake Trails,38.886238,-120.979699
CA,August,37.979644,-121.26251
CA,Avalon,33.343335,-118.317615
CA,Avenal,36.031107,-120.116174
CA,Avery,38.197912,-120.369433
CA,Avila Beach,35.199355,-120.720757
CA,Avocado Heights,34.039039,-117.998167
CA,Azusa,34.138524,-117.912253
CA,Baker,35.276918,-116.071735
CA,Bakersfield,35.353593,-119.036921
CA,Bakersfield Country Club,35.389891,-118.940915
CA,Baldwin Park,34.082824,-117.971286
CA,Ballard,34.639948,-120.110989
CA,Ballico,37.451917,-120.703707
CA,Bangor,39.376087,-121.411654
CA,Banning,33.94603,-116.899233
CA,Barstow,34.866987,-117.043035
CA,Bass Lake,37.327282,-119.565326
CA,Bay Point,38.032254,-121.962236
CA,Bayview,38.006234,-122.320165
CA,Bayview,40.765335,-124.178605
CA,Baywood Park,37.529163,-122.341637
CA,Beale AFB,39.108061,-121.351215
CA,Bear Creek,37.296601,-120.417676
CA,Bear Valley,38.472321,-120.051847
CA,Bear Valley,37.57474,-120.136098
CA,Bear Valley Springs,35.178355,-118.669618
CA,Beaumont,33.876722,-116.953009
CA,Beckwourth,39.843931,-120.414009
CA,Belden,40.006783,-121.248191
CA,Bell,33.979704,-118.179249
CA,Bella Vista,40.651205,-122.25637
CA,Bell Canyon,34.208148,-118.687565
CA,Bellflower,33.887821,-118.12725
CA,Bell Gardens,33.964379,-118.154437
CA,Belmont,37.514398,-122.294475
CA,Belvedere,37.873567,-122.470995
CA,Benbow,40.060267,-123.765381
CA,Bend,40.255092,-122.210916
CA,Benicia,38.072733,-122.155169
CA,Ben Lomond,37.078212,-122.088102
CA,Benton,37.822438,-118.487687
CA,Benton Park,35.346439,-119.029815
CA,Berkeley,37.865673,-122.298725
CA,Bermuda Dunes,33.743499,-116.287325
CA,Berry Creek,39.631812,-121.405621
CA,Bertsch-Oceanview,41.751727,-124.170214
CA,Bethel Island,38.02813,-121.629851
CA,Beverly Hills,34.07923,-118.402437
CA,Bieber,41.138451,-121.117006
CA,Big Bear City,34.254118,-116.796378
CA,Big Bear Lake,34.242888,-116.893893
CA,Big Bend,41.011624,-121.930434
CA,Big Creek,37.203565,-119.248489
CA,Biggs,39.410187,-121.713322
CA,Big Lagoon,41.159427,-124.129746
CA,Big Pine,37.165507,-118.296262
CA,Big River,34.139823,-114.362099
CA,Biola,36.799938,-120.021038
CA,Bishop,37.366381,-118.395808
CA,Blackhawk,37.809629,-121.913241
CA,Blacklake,35.049689,-120.538642
CA,Black Point-Green Point,38.110651,-122.519097
CA,Blairsden,39.775205,-120.610845
CA,Bloomfield,38.322069,-122.834464
CA,Bloomington,34.06007,-117.401241
CA,Blue Lake,40.883201,-123.994716
CA,Bluewater,34.175431,-114.264962
CA,Blythe,33.653584,-114.621785
CA,Bodega,38.348841,-122.971164
CA,Bodega Bay,38.327215,-123.02923
CA,Bodfish,35.573416,-118.486441
CA,Bolinas,37.917725,-122.709502
CA,Bombay Beach,33.35561,-115.726902
CA,Bonadelle Ranchos,36.968806,-119.892779
CA,Bonita,32.673217,-117.006101
CA,Bonny Doon,37.043577,-122.136972
CA,Bonsall,33.274876,-117.191863
CA,Boonville,39.011474,-123.374043
CA,Bootjack,37.474044,-119.8838
CA,Boron,35.01978,-117.665938
CA,Boronda,36.694632,-121.674512
CA,Borrego Springs,33.240965,-116.357119
CA,Bostonia,32.818985,-116.942264
CA,Boulder Creek,37.134099,-122.127208
CA,Boulevard,32.664022,-116.289601
CA,Bowles,36.608873,-119.752564
CA,Boyes Hot Springs,38.312633,-122.488738
CA,Bradbury,34.153159,-117.968818
CA,Bradley,35.86284,-120.804268
CA,Brawley,32.978355,-115.528672
CA,Brea,33.925178,-117.865111
CA,Brentwood,37.935578,-121.71897
CA,Bret Harte,37.602078,-121.00438
CA,Bridgeport,38.25521,-119.210424
CA,Brisbane,37.67575,-122.383302
CA,Broadmoor,37.691495,-122.481339
CA,Brookdale,37.105732,-122.110623
CA,Brooks,38.73688,-122.146807
CA,Brooktrails,39.443283,-123.3938
CA,Buckhorn,38.454797,-120.532334
CA,Buck Meadows,37.807046,-120.075237
CA,Bucks Lake,39.87956,-121.199081
CA,Buellton,34.615497,-120.194237
CA,Buena Park,33.857353,-118.007373
CA,Buena Vista,38.297487,-120.917402
CA,Burbank,34.190079,-118.326405
CA,Burbank,37.321106,-121.930575
CA,Burlingame,37.589952,-122.363342
CA,Burney,40.889362,-121.675465
CA,Burnt Ranch,40.811335,-123.508261
CA,Butte Creek Canyon,39.744502,-121.707131
CA,Butte Meadows,40.08531,-121.542683
CA,Butte Valley,39.668815,-121.645888
CA,Buttonwillow,35.409229,-119.440668
CA,Byron,37.875644,-121.64212
CA,Bystrom,37.61939,-120.981254
CA,Cabazon,33.912724,-116.782825
CA,Calabasas,34.134252,-118.666455
CA,Calexico,32.684931,-115.494357
CA,California City,35.14659,-117.869346
CA,California Hot Springs,35.887568,-118.655022
CA,California Pines,41.413786,-120.66531
CA,California Polytechnic State University,35.306981,-120.667276
CA,Calimesa,33.987354,-117.054238
CA,Calipatria,33.168805,-115.485669
CA,Calistoga,38.581408,-122.582696
CA,Callender,35.047972,-120.575908
CA,Calpella,39.233721,-123.19376
CA,Calpine,39.663381,-120.439277
CA,Calwa,36.713477,-119.76086
CA,Camanche North Shore,38.244218,-120.953915
CA,Camanche Village,38.266481,-120.986575
CA,Camarillo,34.221823,-119.032154
CA,Cambria,35.552069,-121.084137
CA,Cambrian Park,37.256288,-121.928871
CA,Cameron Park,38.674029,-120.988338
CA,Camino,38.742265,-120.680811
CA,Camino Tassajara,37.790886,-121.885052
CA,Campbell,37.280244,-121.953296
CA,Camp Nelson,36.141978,-118.61071
CA,Campo,32.640965,-116.474516
CA,Camp Pendleton Mainside,33.307209,-117.331048
CA,Camp Pendleton South,33.231824,-117.391998
CA,Camptonville,39.452072,-121.048668
CA,Canby,41.452293,-120.888319
CA,Cantua Creek,36.500045,-120.316361
CA,Canyondam,40.169867,-121.076986
CA,Canyon Lake,33.688302,-117.263547
CA,Capitola,36.976083,-121.954012
CA,Caribou,40.073244,-121.16567
CA,Carlsbad,33.129284,-117.284183
CA,Carmel-by-the-Sea,36.552881,-121.921919
CA,Carmel Valley Village,36.500627,-121.73182
CA,Carmet,38.374452,-123.071859
CA,Carmichael,38.630812,-121.325636
CA,Carnelian Bay,39.235165,-120.078207
CA,Carpinteria,34.385234,-119.500759
CA,Carrick,41.446746,-122.363457
CA,Carson,33.840367,-118.249574
CA,Cartago,36.305239,-118.027166
CA,Caruthers,36.539907,-119.845027
CA,Casa Conejo,34.184731,-118.944517
CA,Casa de Oro-Mount Helix,32.763962,-116.968809
CA,Casa Loma,35.34323,-118.998711
CA,Casmalia,34.837799,-120.531044
CA,Caspar,39.363063,-123.804194
CA,Cassel,40.925021,-121.548476
CA,Castaic,34.477544,-118.6264
CA,Castella,41.177253,-122.287237
CA,Castle Hill,37.874718,-122.058582
CA,Castro Valley,37.708276,-122.062769
CA,Castroville,36.764838,-121.753374
CA,Cathedral City,33.835487,-116.463103
CA,Catheys Valley,37.427706,-120.096038
CA,Cayucos,35.439581,-120.889828
CA,Cazadero,38.527831,-123.109799
CA,Cedar Flat,39.206907,-120.094902
CA,Cedar Ridge,38.065736,-120.273869
CA,Cedar Slope,36.145464,-118.578881
CA,Cedarville,41.528683,-120.174433
CA,Centerville,36.736117,-119.496006
CA,Centerville,40.542902,-122.464505
CA,Ceres,37.598786,-120.968081
CA,Cerritos,33.867745,-118.069471
CA,Chalfant,37.492115,-118.390408
CA,Challenge-Brownsville,39.464617,-121.26325
CA,Channel Islands Beach,34.16896,-119.228542
CA,Charleston View,35.964629,-115.897235
CA,Charter Oak,34.102492,-117.856282
CA,Cherokee,39.650877,-121.533646
CA,Cherokee Strip,35.469567,-119.261525
CA,Cherryland,37.679216,-122.103777
CA,Cherry Valley,33.979679,-116.969406
CA,Chester,40.301675,-121.232503
CA,Chico,39.758951,-121.81772
CA,Chilcoot-Vinton,39.806744,-120.138861
CA,China Lake Acres,35.640019,-117.766458
CA,Chinese Camp,37.870215,-120.444225
CA,Chino,33.978037,-117.657719
CA,Chino Hills,33.942969,-117.725648
CA,Choctaw Valley,35.448555,-118.887191
CA,Chowchilla,37.116104,-120.241978
CA,Chualar,36.571113,-121.510295
CA,Chula Vista,32.62767,-117.01517
CA,Citrus,34.113438,-117.891301
CA,Citrus Heights,38.69481,-121.287953
CA,Claremont,34.124925,-117.713923
CA,Clarksburg,38.419335,-121.541617
CA,Clay,38.314038,-121.159591
CA,Clayton,37.940322,-121.930075
CA,Clear Creek,40.307086,-121.0554
CA,Clearlake,38.960045,-122.633232
CA,Clearlake Oaks,39.020605,-122.656939
CA,Clearlake Riviera,38.951383,-122.722243
CA,Cleone,39.490154,-123.775692
CA,Clio,39.754217,-120.566728
CA,Clipper Mills,39.532424,-121.166552
CA,Cloverdale,38.796118,-123.01505
CA,Clovis,36.828967,-119.684922
CA,Clyde,38.02539,-122.028016
CA,Coachella,33.690547,-116.143057
CA,Coalinga,36.133056,-120.339029
CA,Coarsegold,37.239184,-119.700972
CA,Cobb,38.835329,-122.722435
CA,Coffee Creek,41.079673,-122.716906
CA,Cohasset,39.902152,-121.745368
CA,Cold Springs,38.74644,-120.873807
CA,Cold Springs,38.161335,-120.053527
CA,Coleville,38.580561,-119.502863
CA,Colfax,39.093799,-120.953222
CA,College City,39.006085,-122.005134
CA,Collierville,38.212831,-121.264972
CA,Colma,37.676697,-122.452821
CA,Coloma,38.802616,-120.894635
CA,Colton,34.054525,-117.325029
CA,Columbia,38.031227,-120.413398
CA,Colusa,39.205787,-122.012419
CA,Commerce,33.994523,-118.149952
CA,Comptche,39.265134,-123.589715
CA,Compton,33.894047,-118.227469
CA,Concord,37.972186,-122.001606
CA,Concow,39.770316,-121.513493
CA,Contra Costa Centre,37.925963,-122.053977
CA,Copperopolis,37.965388,-120.640973
CA,Corcoran,36.084057,-119.561268
CA,Corning,39.9282,-122.182009
CA,Corona,33.861969,-117.565495
CA,Coronado,32.657625,-117.156539
CA,Coronita,33.875909,-117.610969
CA,Corralitos,36.98423,-121.789432
CA,Corte Madera,37.931846,-122.507738
CA,Costa Mesa,33.665905,-117.912336
CA,Cotati,38.328492,-122.710049
CA,Coto de Caza,33.597037,-117.586484
CA,Cottonwood,35.346427,-118.985095
CA,Cottonwood,40.390291,-122.315631
CA,Coulterville,37.712573,-120.196062
CA,Country Club,37.968036,-121.340482
CA,Courtland,38.332911,-121.557026
CA,Covelo,39.800187,-123.252601
CA,Covina,34.090475,-117.882143
CA,Cowan,37.560105,-120.988787
CA,Crane Creek,37.698779,-119.748274
CA,Crescent City,41.764514,-124.200779
CA,Crescent Mills,40.100741,-120.921706
CA,Cressey,37.42103,-120.65569
CA,Crest,32.80002,-116.867078
CA,Crestline,34.254077,-117.286709
CA,Creston,35.517097,-120.518136
CA,C-Road,39.762728,-120.577051
CA,Crockett,38.051919,-122.220127
CA,Cromberg,39.868383,-120.690446
CA,Crowley Lake,37.568742,-118.746421
CA,Crows Landing,37.394443,-121.075166
CA,Cudahy,33.964003,-118.182561
CA,Culver City,34.00582,-118.396781
CA,Cupertino,37.3194,-122.044957
CA,Cutler,36.524664,-119.288829
CA,Cutten,40.765697,-124.144455
CA,Cuyama,34.931057,-119.61488
CA,Cypress,33.818477,-118.038307
CA,Dales,40.317989,-122.053844
CA,Daly City,37.686193,-122.468669
CA,Dana Point,33.475452,-117.693087
CA,Danville,37.812142,-121.969824
CA,Daphnedale Park,41.506864,-120.548069
CA,Darwin,36.268803,-117.589004
CA,Davenport,37.017779,-122.187885
CA,Davis,38.556147,-121.737793
CA,Day Valley,37.025439,-121.855931
CA,Deer Park,38.535176,-122.470152
CA,Del Aire,33.916738,-118.36929
CA,Delano,35.76643,-119.264221
CA,Del Dios,33.075682,-117.119036
CA,Delft Colony,36.513809,-119.446522
CA,Delhi,37.430599,-120.775899
CA,Delleker,39.813251,-120.489671
CA,Del Mar,32.963945,-117.259804
CA,Del Monte Forest,36.583834,-121.946714
CA,Del Rey,36.656464,-119.598135
CA,Del Rey Oaks,36.589699,-121.829527
CA,Del Rio,37.745907,-121.009293
CA,Denair,37.525398,-120.797433
CA,Derby Acres,35.244025,-119.603833
CA,Descanso,32.869565,-116.627878
CA,Desert Center,33.737799,-115.366622
CA,Desert Edge,33.922289,-116.440092
CA,Desert Hot Springs,33.957591,-116.542284
CA,Desert Palms,33.779144,-116.298219
CA,Desert Shores,33.403803,-116.039206
CA,Desert View Highlands,34.590263,-118.153537
CA,Diablo,37.840774,-121.956477
CA,Diablo Grande,37.399047,-121.263511
CA,Diamond Bar,34.001573,-117.817601
CA,Diamond Springs,38.692014,-120.838684
CA,Di Giorgio,35.249118,-118.844154
CA,Dillon Beach,38.243488,-122.955955
CA,Dinuba,36.545325,-119.3987
CA,Discovery Bay,37.908131,-121.597196
CA,Dixon,38.447512,-121.824223
CA,Dixon Lane-MeadowCreek,37.386388,-118.415273
CA,Dobbins,39.35659,-121.210378
CA,Dog,38.208667,-121.154809
CA,Dollar Point,39.189626,-120.109426
CA,Dorrington,38.304479,-120.266321
CA,Dorris,41.964965,-121.920387
CA,Dos Palos,36.985424,-120.633845
CA,Dos Palos Y,37.04684,-120.639473
CA,Douglas City,40.644953,-122.927426
CA,Downey,33.938237,-118.130856
CA,Downieville,39.578643,-120.816405
CA,Doyle,40.027223,-120.11537
CA,Dry,38.441489,-120.860504
CA,Duarte,34.160967,-117.950447
CA,Dublin,37.716137,-121.896229
CA,Ducor,35.892701,-119.04701
CA,Dunnigan,38.892643,-121.974184
CA,Dunsmuir,41.231526,-122.270939
CA,Durham,39.629358,-121.79077
CA,Dustin Acres,35.215929,-119.374987
CA,Dutch Flat,39.208008,-120.834476
CA,Eagleville,41.318993,-120.114607
CA,Earlimart,35.891354,-119.272092
CA,East Bakersfield,35.383185,-118.974368
CA,Eastern Goleta Valley,34.443913,-119.785477
CA,East Foothills,37.382596,-121.813745
CA,East Hemet,33.730125,-116.940979
CA,East Los Angeles,34.031506,-118.168567
CA,East Nicolaus,38.910044,-121.544319
CA,East Niles,35.368273,-118.922462
CA,East Oakdale,37.783867,-120.798631
CA,Easton,36.652391,-119.790786
CA,East Orosi,36.548069,-119.259853
CA,East Palo Alto,37.46778,-122.13255
CA,East Pasadena,34.136798,-118.077535
CA,East Porterville,36.058155,-118.974892
CA,East Quincy,39.91643,-120.91894
CA,East Rancho Dominguez,33.894841,-118.195586
CA,East Richmond Heights,37.945084,-122.31391
CA,East San Gabriel,34.116189,-118.079886
CA,East Shore,40.245269,-121.076778
CA,East Sonora,37.974241,-120.338035
CA,East Tulare Villa,36.203763,-119.280335
CA,Eastvale,33.963277,-117.582369
CA,East Whittier,33.924376,-117.988732
CA,Edgewood,41.460773,-122.425687
CA,Edison,35.347313,-118.869826
CA,Edmundson Acres,35.227296,-118.823252
CA,Edna,35.210786,-120.605968
CA,Edwards AFB,34.902408,-117.921869
CA,El Adobe,35.245083,-118.958842
CA,El Cajon,32.801673,-116.960468
CA,El Centro,32.786351,-115.560206
CA,El Centro Naval Air Facility,32.825232,-115.668072
CA,El Cerrito,37.919574,-122.302519
CA,El Cerrito,33.838186,-117.522205
CA,El Dorado Hills,38.676082,-121.0477
CA,Eldridge,38.333887,-122.506518
CA,Elfin Forest,33.081232,-117.177443
CA,El Granada,37.520986,-122.470831
CA,Elizabeth Lake,34.656488,-118.379847
CA,Elk Creek,39.598678,-122.53232
CA,Elk Grove,38.414621,-121.384961
CA,Elkhorn,36.810673,-121.718699
CA,El Macero,38.544019,-121.685168
CA,Elmira,38.352329,-121.907719
CA,El Monte,34.074633,-118.029136
CA,El Monte Mobile Village,36.547075,-119.425049
CA,El Nido,37.132376,-120.498551
CA,El Paso de Robles (Paso Robles),35.628513,-120.650356
CA,El Portal,37.673241,-119.787716
CA,El Rancho,36.220684,-119.068357
CA,El Rio,34.245279,-119.156866
CA,El Segundo,33.910367,-118.425079
CA,El Sobrante,37.973624,-122.303141
CA,El Sobrante,33.872464,-117.462518
CA,El Verano,38.297465,-122.491544
CA,Elverta,38.718464,-121.445475
CA,Emerald Lake Hills,37.46566,-122.265351
CA,Emeryville,37.838473,-122.301682
CA,Empire,37.643057,-120.907038
CA,Encinitas,33.050632,-117.263616
CA,Escalon,37.791336,-120.999643
CA,Escondido,33.133053,-117.074043
CA,Esparto,38.69341,-122.024046
CA,Etna,41.458199,-122.895819
CA,Eucalyptus Hills,32.885177,-116.944983
CA,Eureka,40.793401,-124.155246
CA,Exeter,36.294073,-119.145954
CA,Fairbanks Ranch,32.991596,-117.186611
CA,Fairfax,35.346885,-118.933806
CA,Fairfax,37.988532,-122.595208
CA,Fairfield,38.26206,-122.032386
CA,Fairhaven,40.788293,-124.201421
CA,Fairmead,37.077466,-120.193659
CA,Fair Oaks,38.650154,-121.25097
CA,Fairview,37.677667,-122.044434
CA,Fallbrook,33.374235,-117.220375
CA,Fall River Mills,41.007241,-121.441134
CA,Farmersville,36.305,-119.208304
CA,Farmington,37.929868,-121.004367
CA,Fellows,35.177929,-119.547211
CA,Felton,37.039222,-122.080764
CA,Ferndale,40.578102,-124.261238
CA,Fetters Hot Springs-Agua Caliente,38.327504,-122.487137
CA,Fiddle,38.506864,-120.760149
CA,Fieldbrook,40.972958,-124.028586
CA,Fields Landing,40.724236,-124.218603
CA,Fillmore,34.398958,-118.91746
CA,Firebaugh,36.853745,-120.453746
CA,Fish Camp,37.4799,-119.640911
CA,Florence-Graham,33.968159,-118.244667
CA,Florin,38.483209,-121.404271
CA,Floriston,39.39293,-120.015113
CA,Flournoy,39.928339,-122.445793
CA,Folsom,38.666597,-121.141635
CA,Fontana,34.108956,-117.462888
CA,Foothill Farms,38.686732,-121.347478
CA,Forbes,39.527584,-121.266222
CA,Ford City,35.164735,-119.4584
CA,Foresthill,39.005286,-120.831355
CA,Forest Meadows,38.17173,-120.398975
CA,Forest Ranch,39.895204,-121.670451
CA,Forestville,38.482491,-122.889884
CA,Fort Bidwell,41.863301,-120.159395
CA,Fort Bragg,39.439803,-123.801757
CA,Fort Dick,41.869526,-124.167206
CA,Fort Hunter Liggett,35.992329,-121.23487
CA,Fort Irwin,35.247701,-116.683411
CA,Fort Jones,41.608452,-122.841066
CA,Fortuna,40.587084,-124.142161
CA,Fort Washington,36.879298,-119.761256
CA,Foster City,37.56482,-122.250782
CA,Fountain Valley,33.710582,-117.951129
CA,Fowler,36.624434,-119.673973
CA,Franklin,37.327529,-120.532089
CA,Franklin,38.367521,-121.461629
CA,Frazier Park,34.814193,-118.954961
CA,Freedom,36.940252,-121.795247
CA,Freeport,38.462935,-121.502107
CA,Fremont,37.49446,-121.94115
CA,French Camp,37.866024,-121.274154
CA,French Gulch,40.718793,-122.629357
CA,French Valley,33.599461,-117.106495
CA,Fresno,36.782684,-119.793359
CA,Friant,36.984012,-119.70806
CA,Fruitdale,37.311711,-121.935765
CA,Fruitridge Pocket,38.532613,-121.455807
CA,Fuller Acres,35.302254,-118.914295
CA,Fullerton,33.885716,-117.928025
CA,Fulton,38.493709,-122.773417
CA,Furnace Creek,36.427669,-116.87469
CA,Galt,38.270389,-121.300596
CA,Garberville,40.100306,-123.794315
CA,Gardena,33.894417,-118.307522
CA,Garden Acres,37.963697,-121.22961
CA,Garden Farms,35.415782,-120.614034
CA,Garden Grove,33.778782,-117.960472
CA,Garey,34.885821,-120.31375
CA,Garnet,33.917884,-116.47962
CA,Gasquet,41.836075,-123.976031
CA,Gazelle,41.51187,-122.521946
CA,George,38.911353,-120.834624
CA,Gerber,40.061417,-122.148201
CA,Geyserville,38.717314,-122.903423
CA,Gilroy,37.006407,-121.585321
CA,Glendale,34.181393,-118.24583
CA,Glendora,34.144964,-117.847804
CA,Glen Ellen,38.355323,-122.543306
CA,Glennville,35.724194,-118.715217
CA,Golden Hills,35.136422,-118.497592
CA,Gold Mountain,39.761315,-120.519054
CA,Gold River,38.626854,-121.249164
CA,Goleta,34.435441,-119.858946
CA,Gonzales,36.505979,-121.442918
CA,Good Hope,33.770622,-117.27718
CA,Goodmanville,35.428994,-118.943719
CA,Goodyears Bar,39.552354,-120.893102
CA,Goshen,36.349266,-119.420621
CA,Graeagle,39.752477,-120.645449
CA,Grand Terrace,34.031155,-117.313182
CA,Grangeville,36.343898,-119.707467
CA,Granite Bay,38.760441,-121.168196
CA,Granite Hills,32.80328,-116.90561
CA,Graniteville,39.444366,-120.73603
CA,Grass Valley,39.223737,-121.052455
CA,Graton,38.437517,-122.865988
CA,Grayson,37.564577,-121.18005
CA,Greeley Hill,37.757043,-120.130759
CA,Greenacres,35.383159,-119.118381
CA,Green Acres,33.734955,-117.078271
CA,Greenfield,35.269499,-119.009485
CA,Greenfield,36.324561,-121.242658
CA,Greenhorn,39.902968,-120.758983
CA,Green Valley,34.617415,-118.405023
CA,Green Valley,38.263842,-122.162496
CA,Greenview,41.544922,-122.920964
CA,Greenville,40.133603,-120.945333
CA,Grenada,41.6401,-122.526627
CA,Gridley,39.362229,-121.69708
CA,Grimes,39.074154,-121.898775
CA,Grizzly Flats,38.635696,-120.535435
CA,Groveland,37.831966,-120.241581
CA,Grover Beach,35.120888,-120.619664
CA,Guadalupe,34.964929,-120.573127
CA,Guerneville,38.517165,-122.989897
CA,Guinda,38.827374,-122.198359
CA,Gustine,37.254514,-120.99487
CA,Hacienda Heights,33.995853,-117.973023
CA,Half Moon Bay,37.467319,-122.440485
CA,Hamilton Branch,40.27725,-121.096092
CA,Hamilton City,39.742678,-122.010946
CA,Hanford,36.327512,-119.655018
CA,Happy Camp,41.815893,-123.392796
CA,Happy Valley,40.466141,-122.417969
CA,Harbison Canyon,32.827274,-116.83807
CA,Hardwick,36.402596,-119.72077
CA,Harmony Grove,33.100717,-117.137992
CA,Hartland,36.653867,-118.958812
CA,Hartley,38.420393,-121.950842
CA,Hasley Canyon,34.481599,-118.666689
CA,Hat Creek,40.789806,-121.474515
CA,Hawaiian Gardens,33.830482,-118.073451
CA,Hawthorne,33.914775,-118.348083
CA,Hayfork,40.575871,-123.123629
CA,Hayward,37.626826,-122.104015
CA,Healdsburg,38.622526,-122.865133
CA,Heber,32.732494,-115.529398
CA,Hemet,33.734065,-116.996854
CA,Herald,38.288403,-121.231066
CA,Hercules,38.021427,-122.288929
CA,Herlong,40.141722,-120.139657
CA,Hermosa Beach,33.869819,-118.405296
CA,Hesperia,34.397038,-117.315198
CA,Hickman,37.619316,-120.751219
CA,Hidden Hills,34.163744,-118.66121
CA,Hidden Meadows,33.223634,-117.119826
CA,Hidden Valley Lake,38.801498,-122.551422
CA,Highgrove,34.010576,-117.309838
CA,Highland,34.113473,-117.165729
CA,Highlands,37.520022,-122.3459
CA,Hillcrest,35.37897,-118.957853
CA,Hills,37.557206,-122.358541
CA,Hilmar-Irwin,37.404543,-120.850426
CA,Hiouchi,41.793664,-124.066113
CA,Hollister,36.855599,-121.398598
CA,Holtville,32.813781,-115.378319
CA,Home Garden,36.302832,-119.637073
CA,Home Gardens,33.878352,-117.511549
CA,Homeland,33.745881,-117.113241
CA,Homestead Valley,34.273004,-116.414549
CA,Homewood Canyon,35.89004,-117.386414
CA,Honcut,39.332591,-121.538759
CA,Hood,38.369291,-121.515488
CA,Hoopa,41.079639,-123.69766
CA,Hopland,38.96883,-123.116899
CA,Hornbrook,41.904505,-122.558319
CA,Hornitos,37.502525,-120.238859
CA,Hughson,37.602135,-120.866004
CA,Humboldt Hill,40.722316,-124.197381
CA,Huntington Beach,33.698007,-118.003834
CA,Huntington Park,33.979248,-118.217438
CA,Huron,36.204032,-120.09619
CA,Hyampom,40.626179,-123.46883
CA,Hydesville,40.557875,-124.08225
CA,Hypericum,36.256167,-119.216933
CA,Idlewild,35.809588,-118.670463
CA,Idyllwild-Pine Cove,33.744209,-116.73069
CA,Igo,40.49774,-122.549621
CA,Imperial,32.839004,-115.572026
CA,Imperial Beach,32.56914,-117.114921
CA,Independence,36.83031,-118.207855
CA,Indian Falls,40.05875,-120.980314
CA,Indianola,40.809964,-124.078447
CA,Indian Wells,33.703465,-116.325898
CA,Indio,33.731639,-116.235971
CA,Indio Hills,33.84106,-116.248473
CA,Industry,34.026232,-117.940327
CA,Inglewood,33.956068,-118.344274
CA,Interlaken,36.950603,-121.737519
CA,Inverness,38.082796,-122.854943
CA,Inyokern,35.654387,-117.819476
CA,Ione,38.362862,-120.947685
CA,Iron Horse,39.780481,-120.482291
CA,Irvine,33.678399,-117.771254
CA,Irwindale,34.111855,-117.963614
CA,Isla Vista,34.412179,-119.860657
CA,Isleton,38.161252,-121.604958
CA,Ivanhoe,36.383439,-119.220088
CA,Jackson,38.348485,-120.772821
CA,Jacumba,32.636478,-116.190706
CA,James,37.958229,-120.407071
CA,Jamul,32.71841,-116.870862
CA,Janesville,40.301105,-120.490318
CA,Jenner,38.459034,-123.127467
CA,Johannesburg,35.371876,-117.641803
CA,Johnson Park,40.921179,-121.629531
CA,Johnstonville,40.380198,-120.586134
CA,Johnsville,39.76971,-120.699783
CA,Jones Valley,40.701315,-122.242004
CA,Joshua Tree,34.123633,-116.312862
CA,Jovista,35.794014,-119.18957
CA,Julian,33.073502,-116.588883
CA,Junction City,40.736022,-123.084644
CA,June Lake,37.761783,-119.114729
CA,Jurupa Valley,34.002591,-117.467612
CA,Keddie,40.005944,-120.952416
CA,Keeler,36.486718,-117.87333
CA,Keene,35.23178,-118.613067
CA,Kelly Ridge,39.528803,-121.466259
CA,Kelseyville,38.970184,-122.831384
CA,Kennedy,37.929042,-121.245783
CA,Kennedy Meadows,36.007639,-118.109947
CA,Kensington,37.905144,-122.284226
CA,Kentfield,37.935873,-122.558999
CA,Kenwood,38.415408,-122.538753
CA,Kep'el,41.284142,-123.819006
CA,Kerman,36.725041,-120.062473
CA,Kernville,35.755017,-118.430907
CA,Keswick,40.612959,-122.460779
CA,Kettleman City,36.008985,-119.962852
CA,Keyes,37.557308,-120.911375
CA,King City,36.216283,-121.131962
CA,Kings Beach,39.247528,-120.019903
CA,Kingsburg,36.525193,-119.566565
CA,Kingvale,39.320997,-120.438309
CA,Kirkwood,38.689265,-120.054979
CA,Klamath,41.572859,-124.055606
CA,Knightsen,37.962426,-121.64858
CA,Knights Ferry,37.821152,-120.669089
CA,Knights Landing,38.797972,-121.717447
CA,La Ca√±ada Flintridge,34.20969,-118.200139
CA,La Crescenta-Montrose,34.233016,-118.235774
CA,La Cresta,35.397201,-118.989312
CA,Ladera,37.399875,-122.198971
CA,Ladera Heights,33.996776,-118.370028
CA,Ladera Ranch,33.549146,-117.641741
CA,Lafayette,37.891004,-122.119529
CA,La Grange,37.663456,-120.463147
CA,Laguna Beach,33.54337,-117.761801
CA,Laguna Hills,33.591216,-117.697621
CA,Laguna Niguel,33.528654,-117.701253
CA,Laguna Woods,33.612058,-117.730319
CA,Lagunitas-Forest Knolls,38.018026,-122.691303
CA,La Habra,33.927927,-117.951554
CA,La Habra Heights,33.958959,-117.948973
CA,La Honda,37.317705,-122.25843
CA,Lake Almanor Country Club,40.257771,-121.146958
CA,Lake Almanor Peninsula,40.28121,-121.134454
CA,Lake Almanor West,40.233573,-121.202075
CA,Lake Arrowhead,34.254059,-117.178108
CA,Lake California,40.358355,-122.208843
CA,Lake City,41.645317,-120.222097
CA,Lake Davis,39.852428,-120.45841
CA,Lake Don Pedro,37.64142,-120.36436
CA,Lake Elsinore,33.685956,-117.335404
CA,Lake Forest,33.654946,-117.675848
CA,Lakehead,40.903436,-122.399658
CA,Lake Hughes,34.682415,-118.451938
CA,Lake Isabella,35.637098,-118.48261
CA,Lakeland Village,33.648956,-117.366823
CA,Lake Los Angeles,34.609839,-117.830337
CA,Lake Mathews,33.824966,-117.368343
CA,Lake Nacimiento,35.730962,-120.869516
CA,Lake of the Pines,39.038746,-121.061341
CA,Lake of the Woods,34.827138,-118.997304
CA,Lakeport,39.038333,-122.922633
CA,Lake Riverside,33.518735,-116.812103
CA,Lake San Marcos,33.122362,-117.208576
CA,Lake Shastina,41.523127,-122.376366
CA,Lake Sherwood,34.131803,-118.884714
CA,Lakeside,35.234667,-119.082858
CA,Lakeside,32.856617,-116.904237
CA,Lakeview,33.828465,-117.123334
CA,Lake Wildwood,39.23324,-121.19773
CA,Lakewood,33.847135,-118.121894
CA,La Mesa,32.769495,-117.021923
CA,La Mirada,33.902045,-118.008961
CA,Lamont,35.265142,-118.916042
CA,Lanare,36.437723,-119.932199
CA,Lancaster,34.693558,-118.175305
CA,La Palma,33.850616,-118.039565
CA,La Porte,39.672508,-120.985244
CA,La Presa,32.712315,-117.00371
CA,La Puente,34.032333,-117.95352
CA,La Quinta,33.646083,-116.275297
CA,La Riviera,38.568538,-121.354962
CA,Larkfield-Wikiup,38.512972,-122.753601
CA,Larkspur,37.940544,-122.530229
